Name,Url,Telephone,Longitude,Latitude,AddressRegion,AddressLocality,AddressCountry,Tags
Killarney Lodge,http://www.killarneylodge.ie,+353(0)646636499,-9.505884,52.056616,Kerry,Killarney,Republic of Ireland,Guesthouse
Hideaway Camping and Caravan Park,,+353(0)2822254,-9.260331,51.541699,Cork,Skibbereen,Republic of Ireland,Camping
Clonvilla,,+353(0)2498288,-7.924324,51.91066,Cork,Youghal,Republic of Ireland,Camping
Rosses Point Caravan Park (Greenlands),http://www.sligocaravanandcamping.ie,+353(0)719177113,-8.569483,54.306976,Sligo,Rosses Point,Republic of Ireland,Camping
Strandhill Caravan and Camping Park,http://www.sligocaravanandcamping.ie,+353(0)719168111,-8.605472,54.271988,Sligo,Airport Road,Republic of Ireland,Camping
Caseys Caravan Park,http://www.caseyscaravanpark.com,+353(0)749155376,-7.837826,55.195124,Donegal,Downings,Republic of Ireland,Camping
Flemings White Bridge Caravan and Camping,http://www.killarneycamping.com,+353(0)646631590,-9.47590406494146,52.0571132152927,Kerry,Killarney,Republic of Ireland,Camping
Fossa Caravan and Camping Park,http://www.fossacampingkillarney.com,+353(0)646631497,-9.585609,52.070824,Kerry,Fossa,Republic of Ireland,Camping
Streamstown Caravan & Camping Park,http://www.tipperarycaravanpark.com,35350521519,-7.83932649999999,52.957265,Tipperary,Roscrea,Ireland,Camping
Roundwood Caravan and Camping Park,http://www.dublinwicklowcamping.com,35312818163,-6.22231876721184,53.0690991517685,Wicklow,Roundwood,Republic of Ireland,Camping
Barleycove Holiday Park,https://www.facebook.com/pages/category/Local-Business/Barleycove-Holiday-park-137052389810705,+353(0)2835302,-9.78195,51.469705,Cork,Crookhaven,Republic of Ireland,Camping
Eagle Point Camping,http://www.eaglepointcamping.com,+353(0)2750630,-9.453848,51.719186,Cork,Ballylickey,Republic of Ireland,Camping
Newtown Cove Caravan and Camping Park,https://www.facebook.com/pages/Newtown-Cove-Caravan-Park-Tramore/214205415369614,+353(0)51381979,-7.172576,52.147718,Waterford,Tramore,Republic of Ireland,Camping
O'Sheas Caravan and Camping Park,,+353(0)2763140,-9.543672,51.750909,Cork,Glengarriff,Republic of Ireland,Camping
Ballinacourty House,http://www.camping.ie,+353(0)6256000,-8.209861,52.41631,Tipperary,Glen Of Aherlow,Republic of Ireland,Camping
Green Acres Caravan and Camping Park,http://www.greenacrescamping.ie,+353(0)659057011,-9.643485,52.620692,Clare,Kilkee,Republic of Ireland,Camping
Creveen Lodge Caravan and Camping Park,http://www.creveenlodge.com,+353(0)646683131,-9.760142,51.755089,Kerry,Lauragh,Republic of Ireland,Camping
Mannix Point Camping and Caravan Park,http://www.campinginkerry.com,+353(0)669472806,-10.24526,51.941941,Kerry,,Republic of Ireland,Camping
Fitzmaurice's Caravan & Camping Park,http://www.fitzmauricescaravanpark.com,+353(0)51381466,-7.138872,52.164454,Waterford,Riverstown,Republic of Ireland,Camping
Meadow Camping Park,,+353(0)2833280,-9.10905,51.564219,Cork,Glandore,Republic of Ireland,Camping
Jasmine Villa,,+353(0)214883234,-8.23967,51.911458,Cork,Carrigtwohill,Republic of Ireland,Camping
Keel Sandybanks Caravan and Camping Park,http://www.achillcamping.com,+353(0)9843211,-10.077045,53.974912,Mayo,,Republic of Ireland,Camping
Blarney Caravan and Camping Park,http://www.blarneycaravanpark.com,+353(0)214516519,-8.5461,51.947423,Cork,Blarney,Republic of Ireland,Camping
Lough Ramor Caravan and Camping Park,,353872825976,-7.049428,53.795701,Cavan,Virginia,Republic of Ireland,Camping
Atlantic Caravan Park,http://www.atlanticcaravanpark.com,+353(0)9636132,-9.098574,54.209892,Sligo,Enniscrone,Republic of Ireland,Camping
Glenbeg Caravan Park,,+353(0)669475182,-10.0814964059234,51.7589518737297,Kerry,Caherdaniel,Republic of Ireland,Camping
Woodlands Park,https://www.facebook.com/woodlandstralee,+353(0)667121235,-9.703761,52.261393,Kerry,Tralee,Republic of Ireland,Camping
Sir Rogers Caravan and Camping Park,http://www.sirrogers.com/,+353(0)667134730,-9.82525303823632,52.3402171832763,Kerry,Ardfert,Republic of Ireland,Camping
O'Briens Cashel Lodge,http://www.cashel-lodge.com,+353(0)6261003,-7.895595,52.520046,Tipperary,Cashel,Republic of Ireland,Camping
Clifden Campsite and Caravan Park,http://www.clifdencamping.com,+353(0)9522150,-10.018164,53.501827,Galway,Clifden,Republic of Ireland,Camping
Bunbeg House,http://www.bunbeghouse.com,+353(0)749531305,-8.309111,55.057886,Donegal,Bunbeg,Republic of Ireland,"B&B,Welcome Standard"
Grovemount House,https://www.grovemount-ennistymon.com/,+353(0)657071431,-9.303594,52.939705,Clare,Ennistymon,Republic of Ireland,B&B
Moloney House,http://www.moloneyhouse.ie,+353(0)871250303,-9.38285351901436,53.0136557193409,Clare,Doolin,Republic of Ireland,B&B
Tigh Fitz,http://www.tighfitz.com,+353(0)9961213,-9.66416802083199,53.1056002634114,Galway,Aran Islands,Republic of Ireland,"B&B,Welcome Standard"
Harbour House B&B,http://www.harbourhousebb.com,+353(0)539425117,-6.22928027918533,52.644582828659,Wexford,Gorey,Republic of Ireland,"B&B,Welcome Standard"
West End Bar,http://www.westendfenit.ie,+353(0)667136246,-9.864376,52.276691,Kerry,Fenit,Republic of Ireland,"B&B,Welcome Standard"
Abbey Lodge,http://www.abbey-lodge.com,+353(0)646634193,-9.506673,52.055283,Kerry,Killarney,Republic of Ireland,"B&B,Welcome Standard"
Óstán Loch Altan Hotel,http://www.ostanlochaltan.com/,+353(0)749135267,-8.13319390178298,55.1216751758302,Donegal,Gortahork,Republic of Ireland,Hotel
Ballyliffin Hotel,http://www.ballyliffinhotel.com,+353(0)749376106,-7.393952,55.277699,Donegal,Ballyliffin,Republic of Ireland,Hotel
Lucan Spa Hotel,https://www.facebook.com/LucanSpa/,+353(0)16280494,-6.4636215251312,53.3556529419459,Dublin,Lucan,Republic of Ireland,Hotel
Dooley's Hotel Waterford,http://www.dooleys-hotel.ie,+353(0)51873531,-7.11559923677066,52.262860884405,Waterford,Waterford City,Republic of Ireland,Hotel
Dorrian’s Imperial Hotel,http://www.dorriansimperialhotel.com,+353(0)719851147,-8.19124232142644,54.5020065267716,Donegal,Ballyshannon,Republic of Ireland,Hotel
The Wyatt Hotel,http://www.wyatthotel.com,+353(0)9825027,-9.52530618650814,53.799263197959,Mayo,Westport,Republic of Ireland,Hotel
Arbutus Hotel,http://www.arbutuskillarney.com,+353(0)646631037,-9.50609804662701,52.0595528069219,Kerry,Killarney,Republic of Ireland,Hotel
Bridge Hotel,https://www.facebook.com/pages/Bridge-Hotel-Arklow/296977553466?ref=bookmarks,+353(0)40231666,-6.15244,52.798163,Wicklow,Arklow,Republic of Ireland,Hotel
Kelly's Resort Hotel,https://www.facebook.com/pages/Kellys-Resort-Hotel/306173243827,+353(0)539132114,-6.387774,52.275493,Wexford,Rosslare,Republic of Ireland,Hotel
Ryan's Hotel,http://www.ryanshotelcong.ie,+353(0)949546243,-9.28634746990587,53.5413240917535,Mayo,Cong,Republic of Ireland,Hotel
Maple Hotel,http://www.maplehotel.com,+353(0)18555442,-6.254402,53.351114,Dublin,Dublin,Republic of Ireland,Hotel
Hearn's Hotel,https://www.facebook.com/pages/category/Hotel/Hearns-Hotel-2217804311776051,+353(0)526121611,-7.69800156546784,52.3535785113643,Tipperary,Clonmel,Republic of Ireland,Hotel
Taravie Hotel,https://www.facebook.com/pages/Taravie-Hotel/200397549970664,+353(0)539425208,-6.22803760615158,52.6453261952865,Wexford,Gorey,Republic of Ireland,Hotel
Barry's Hotel,http://www.barryshotel.com,+353(0)18749407,-6.262855,53.355329,Dublin,Dublin,Republic of Ireland,Hotel
O'Shea's Hotel,http://www.osheas-hotel.com,+353(0)51381246,-7.15032496197125,52.1599075470621,Waterford,Tramore,Republic of Ireland,Hotel
Munster Arms Hotel,http://www.munsterarmshotel.ie,+353(0)238841562,-8.73374849685478,51.7451811339418,Cork,Bandon,Republic of Ireland,Hotel
Glendalough Hotel,http://www.glendaloughhotel.com,+353(0)40445135,-6.3257687638063,53.0114087514418,Wicklow,Glendalough,Republic of Ireland,Hotel
Wynn's Hotel,http://www.wynnshotel.ie,+353(0)18745131,-6.25874298528481,53.3483888333346,Dublin,Dublin,Republic of Ireland,Hotel
Glen Hotel,http://www.theglenhotel.weebly.com,+353(0)749520505,-8.49961369807817,54.9900698835608,Donegal,,Republic of Ireland,Hotel
Imperial Hotel (Galway),http://www.imperialhotelgalway.ie,+353(0)91563033,-9.05090665889542,53.2746043446592,Galway,Eyre Square,Republic of Ireland,Hotel
Dunraven Arms Hotel,http://www.dunravenhotel.com,+353(0)61605900,-8.78676176190185,52.5655142970244,Limerick,Adare,Republic of Ireland,Hotel
O'Donovan's Hotel,http://www.odonovanshotel.com,+353(0)238833250,-8.88993988343236,51.6230302094102,Cork,Clonakilty,Republic of Ireland,Hotel
Strand Hotel,https://strandhotel.ie/,+353(0)9843241,-10.0283674576721,54.0115927078879,Mayo,,Republic of Ireland,Hotel
Greville Arms Hotel,http://www.grevillearmshotel.ie/,353449348563,-7.34092228282065,53.5257780714162,Westmeath,Mullingar,Republic of Ireland,Hotel
Salthill Hotel,https://www.facebook.com/salthillhotel?ref=hl,35391522711,-9.08734321230315,53.2586568458885,Galway,Salthill,Republic of Ireland,Hotel
The Anner Hotel,http://www.annerhotel.ie,+353(0)50421799,-7.79621553372953,52.6787770238762,Tipperary,Thurles,Republic of Ireland,Hotel
Rosapenna Hotel and Golf Resort,http://www.rosapenna.ie,+353(0)749155301,-7.82736392855838,55.1886294969992,Donegal,Downings,Republic of Ireland,Hotel
Hotel Kilkenny,http://www.hotelkilkenny.ie,+353(0)567762000,-7.26107850487619,52.6430975043169,Kilkenny,Kilkenny City,Republic of Ireland,Hotel
Anno Santo Hotel,,+353(0)91523011,-9.08856531225114,53.2633111787586,Galway,Salthill,Republic of Ireland,Hotel
Innishannon House Hotel,http://www.innishannonhotel.ie,+353(0)214775121,-8.64807554844469,51.759688220569,Cork,Innishannon,Republic of Ireland,Hotel
Brandon Hotel Conference & Leisure Centre,http://www.facebook.com/brandonhotel,+353(0)667123333,-9.70993895758533,52.2670564758397,Kerry,Tralee,Republic of Ireland,Hotel
"Mount Errigal Hotel, Conference and Leisure Centre",http://www.mounterrigal.com,+353(0)749122700,-7.71392856564136,54.9504880106702,Donegal,Letterkenny,Republic of Ireland,Hotel
Devon Inn Hotel,http://www.devoninnhotel.ie,+353(0)6984122,-9.17974568919373,52.3948304655072,Limerick,Templeglantine,Republic of Ireland,Hotel
Castle Arms Hotel,http://www.castlearmshotel.ie,+353(0)578736117,-7.3960358312654,52.8453718945471,Laois,Durrow,Republic of Ireland,Hotel
Ferrycarrig Hotel,http://www.ferrycarrighotel.com,+353(0)539120999,-6.50578233919998,52.3537286788285,Wexford,Ferrycarrig,Ireland,Hotel
Carraroe Hotel,http://carraroehotel.com,+353(0)91869577,-9.60686066319779,53.2639305308593,Galway,Carraroe,Republic of Ireland,Hotel
Roundstone House Hotel,https://www.facebook.com/roundstonehouse/,+353(0)9535864,-9.91904029753595,53.3951509984551,Galway,Roundstone,Republic of Ireland,Hotel
Kenmare Bay Hotel & Resort,http://www.kenmarebayhotel.com,+353(0)646641300,-9.59134572387313,51.8830245640437,Kerry,Kenmare,Republic of Ireland,Hotel
Greenhills Hotel,http://www.greenhillsgroup.com,+353(0)61453033,-8.6711574951239,52.6737115938038,Limerick,Limerick City,Republic of Ireland,Hotel
Fitzgeralds Hotel,http://www.fitzgeraldshotel.com,+353(0)719841336,-8.28449454596329,54.4766292864127,Donegal,Bundoran,Republic of Ireland,Hotel
White Lady Hotel,http://www.whiteladyhotelkinsale.ie,+353(0)214772737,-8.51974989814755,51.7014365711456,Cork,Kinsale,Republic of Ireland,Hotel
Riverbank House Hotel,http://www.riverbankhousehotel.com,+353(0)539123611,-6.45500504414553,52.3446885443078,Wexford,,Republic of Ireland,Hotel
Mountshannon Hotel,http://www.mountshannon-hotel.ie,+353(0)61927162,-8.42815869692424,52.931839139924,Clare,Mountshannon,Republic of Ireland,Hotel
Killarney Avenue Hotel,http://www.killarneyavenue.com,+353(0)646632522,-9.50626877488616,52.0575264280726,Kerry,Killarney,Republic of Ireland,Hotel
Blarney Woollen Mills Hotel,http://www.blarneywoollenmillshotel.com,+353(0)214385011,-8.56525258895499,51.9329310469767,Cork,Blarney,Republic of Ireland,Hotel
Town House Hotel,http://www.thetownhousehotel.ie,+353(0)45879226,-6.67192033498759,53.2162504396336,Kildare,Naas,Republic of Ireland,Hotel
Sancta Maria Hotel,http://www.sancta-maria.ie,+353(0)657081041,-9.31910898262026,52.9375602555802,Clare,Lahinch,Republic of Ireland,Hotel
Teach Óstan na Pairce Hotel,http://www.parklodgehotel.ie,+353(0)91553159,-9.26449848404411,53.2470201357408,Galway,Spiddal,Republic of Ireland,Hotel
Cedar Lodge Hotel and Restaurant,http://www.cedarlodgehotel.ie/,+353(0)51428386,-6.773846,52.364251,Wexford,Newbawn,Republic of Ireland,Hotel
Harcourt Hotel,http://www.harcourthotel.ie,+353(0)14783677,-6.26296227058696,53.3345299088083,Dublin,Dublin,Republic of Ireland,Hotel
Summerhill House Hotel,http://www.summerhillhousehotel.com,+353(0)12867928,-6.16399447792719,53.1903744568998,Wicklow,Enniskerry,Republic of Ireland,Hotel
Ardagh Hotel & Restaurant,http://www.facebook.com/ardaghhotel/,+353(0)9521384,-10.0174942245369,53.4688232636826,Galway,Clifden,Republic of Ireland,Hotel
Tinakilly Country House and Restaurant,http://www.tinakilly.ie,+353(0)40469274,-6.06691249016091,52.9961822790102,Wicklow,Rathnew,Republic of Ireland,Hotel
Sligo Southern Hotel,https://www.sligosouthernhotel.ie/,353719162101,-8.4827764704828,54.2714642427015,Sligo,,Republic of Ireland,Hotel
Dun A Ri House Hotel,http://www.dunarihouse.com,353429668091,-6.80406399999999,53.905079,Cavan,Kingscourt,Ireland,Hotel
"Oranmore Lodge Hotel, Conference and Leisure Centre",https://www.facebook.com/oranmorelodgehotel?ref=hl,+353(0)91794400,-8.9308824141035,53.2760256616919,Galway,Oranmore,Republic of Ireland,Hotel
The Westbury Hotel,http://www.doylecollection.com,+353(0)16791122,-6.26143753984638,53.3415244545117,Dublin,Dublin,Republic of Ireland,Hotel
Blarney Castle Hotel,http://www.blarneycastlehotel.com,+353(0)214385116,-8.56718984846213,51.9325030954086,Cork,Blarney,Republic of Ireland,Hotel
The Belvedere Hotel,http://www.belvederehotel.ie,+353(0)18737700,-6.26212823065373,53.355129668591,Dublin,Dublin,Republic of Ireland,Hotel
Hibernian Hotel,http://www.hibernianhotelmallow.com,+353(0)2258200,-8.64592732944777,52.1375983773317,Cork,Mallow,Republic of Ireland,Hotel
Finnstown Castle Hotel,http://www.finnstowncastlehotel.com,+353(0)16010700,-6.45312925390624,53.34018908949,Dublin,Lucan,Republic of Ireland,Hotel
Russell Court Hotel,http://www.russellcourthotel.ie,+353(0)14784991,-6.26367,53.335825,Dublin,Dublin,Republic of Ireland,Hotel
Adare Manor Hotel & Golf Resort,https://www.adaremanor.com/,35361605200,-8.77782559999999,52.5641885999999,Limerick,Adare,Ireland,Hotel
Danaghers Hotel,http://danaghershotelcong.wix.com/danaghers#!contact/c24vq,+353(0)949546028,-9.286207,53.540546,Mayo,Cong,Republic of Ireland,Hotel
Lough Inagh Lodge Hotel,http://www.loughinaghlodgehotel.ie,+353(0)9534706,-9.74199683374695,53.5207980512211,Galway,Recess,Republic of Ireland,Hotel
The Park Hotel and Leisure Centre,https://www.parkhoteldungarvan.com/,+353(0)5842899,-7.6231689453516,52.0945941196026,Waterford,Dungarvan,Republic of Ireland,Hotel
Allingham Arms Hotel,https://www.allinghamarmshotel.ie/,+353(0)719841075,-8.28365730307575,54.4767823556235,Donegal,Bundoran,Republic of Ireland,Hotel
Harbour View Hotel,http://www.harbourhotel.ie,+353(0)45879145,-6.66771150735758,53.2162072808157,Kildare,Naas,Republic of Ireland,Hotel
Cill Aodain Court Hotel,http://www.cillaodain.ie,+353(0)949381761,-8.998056,53.85042,Mayo,Kiltimagh,Republic of Ireland,Hotel
The Carraig,http://www.carraighotel.com,+353(0)51641455,-7.4124553208494,52.3453735055277,Tipperary,,Republic of Ireland,Hotel
Bay View Hotel (Killybegs),http://www.bayviewhotel.ie,+353(0)749731950,-8.4421739544386,54.6368004784074,Donegal,Killybegs,Republic of Ireland,Hotel
Walter Raleigh Hotel,http://www.walterraleighhotel.com,+353(0)2492011,-7.84349039078995,51.9467700129042,Cork,Youghal,Republic of Ireland,Hotel
Kilmurry Lodge Hotel,http://www.kilmurrylodge.com,+353(0)61331133,-8.55322562392518,52.6687479749452,Limerick,Castletroy,Republic of Ireland,Hotel
Gullane's Hotel,http://www.gullaneshotel.com,+353(0)909642220,-8.22116637053488,53.3305793846378,Galway,Ballinasloe,Republic of Ireland,Hotel
River Island Hotel,http://www.riverislandhotel.com/,+353(0)667142555,-9.46412947486874,52.2306869800036,Kerry,Castleisland,Republic of Ireland,Hotel
Beresford Hotel,http://www.beresfordhotelifsc.com,+353(0)18134700,-6.25269429332354,53.3500933581118,Dublin,Dublin,Republic of Ireland,Hotel
Dunmore House Hotel,http://www.dunmorehousehotel.ie,+353(0)238833352,-8.86767890368742,51.5902265035149,Cork,Muckross,Republic of Ireland,Hotel
Park House Hotel,http://www.parkhousehotel.ie,+353(0)91564924,-9.04673109688951,53.2744741344576,Galway,Eyre Square,Republic of Ireland,Hotel
Dinn Rí Hotel,http://www.dinnri.com,+353(0)599133111,-6.93003373189446,52.8358462543413,Carlow,Carlow Town,Republic of Ireland,Hotel
Langton House,http://www.langtons.ie,+353(0)567765133,-7.24826665583702,52.653279932597,Kilkenny,Kilkenny City,Republic of Ireland,Hotel
Forty Four Main Street,http://www.thefortyfour.ie/,+353(0)18401308,-6.221102,53.457636,Dublin,Swords,Republic of Ireland,Hotel
The Mercantile Hotel,http://www.mercantilehotel.ie,+353(0)16707100,-6.264007,53.343915,Dublin,Dublin,Republic of Ireland,Hotel
Dunbrody Country House Hotel,http://www.dunbrodyhouse.com,+353(0)51389600,-6.942125,52.23985,Wexford,Arthurstown,Republic of Ireland,Hotel
Ballyglass Country House,http://www.ballyglasshouse.com,+353(0)6252104,-8.165632,52.442009,Tipperary,,Republic of Ireland,Hotel
Limerick City Hotel,https://www.limerickcityhotel.ie/,35361207000,-8.63341119999999,52.6610648,Limerick,,Ireland,Hotel
Fennessys Hotel,http://www.fennessyshotel.com,+353(0)526123680,-7.702124,52.354589,Tipperary,Clonmel,Republic of Ireland,Hotel
Ibis Hotel,http://www.ibis.com/gb/hotel-0595-ibis-dublin/index.shtml,+353(0)14641480,-6.372506,53.318293,Dublin,Clondalkin,Republic of Ireland,Hotel
Springfort Hall Country House Hotel,https://twitter.com/springfort,+353(0)2221278,-8.644394,52.137064,Cork,Mallow,Republic of Ireland,Hotel
"Radisson Blu Hotel, Dublin Airport",http://www.radissonblu.ie/hotel-dublinairport,+353(0)18446000,-6.232407,53.426515,Dublin,Dublin Airport,Republic of Ireland,Hotel
The Address Cork,https://www.theaddresscork.com/,+353(0)214539000,-8.459401,51.905133,Cork,Cork City,Republic of Ireland,Hotel
Downhill Inn Hotel,http://www.downhillinn.ie,+353(0)9673444,-9.135038,54.119429,Mayo,Ballina,Republic of Ireland,Hotel
Killarney Court Hotel,http://www.killarneycourthotel.com/,+353(0)646637070,-9.515446,52.068823,Kerry,Killarney,Republic of Ireland,Hotel
Radisson Blu St. Helen's Hotel,http://www.radissonblu.ie/sthelenshotel-dublin,+353(0)12186000,-6.20564,53.304792,Dublin,Blackrock,Republic of Ireland,Hotel
Fitzwilliam Hotel,http://www.fitzwilliamhoteldublin.com,+353(0)14787000,-6.26142,53.339403,Dublin,Dublin,Republic of Ireland,Hotel
Meadowlands Hotel,https://www.meadowlandshotel.com/,+353(0)667180444,-9.691311,52.27621,Kerry,Tralee,Republic of Ireland,Hotel
Roxford Lodge Hotel,http://www.roxfordlodge.ie/en/,+353(0)16688572,-6.237116,53.33539,Dublin,Ballsbridge,Republic of Ireland,Hotel
Lady Gregory Hotel Conference and Leisure Club,http://www.ladygregoryhotel.ie,+353(0)91632333,-8.814912,53.061221,Galway,Gort,Republic of Ireland,Hotel
Taylors Three Rock Hotel,http://www.taylorsthreerock.ie,+353(0)14942311,-6.262253,53.268386,Dublin,Rathfarnham,Republic of Ireland,Hotel
Times Hotel,,+353(0)6231111,-8.157902,52.473949,Tipperary,Tipperary Town,Republic of Ireland,Hotel
Bella Vista Hotel,http://www.bellavistahotel.ie,+353(0)214812450,-8.297062,51.851385,Cork,Cobh,Republic of Ireland,Hotel
Leenane Hotel,http://leenanehotel.com/,+353(0)9542249,-9.70493,53.594557,Galway,Leenane,Republic of Ireland,Hotel
The Wilton Hotel,http://www.wiltonhotelbray.com,+353(0)12760258,-6.100199,53.186639,Wicklow,Bray,Republic of Ireland,Hotel
Grand Central Hotel,http://www.grandcentralbundoran.com/,+353(0)719842722,-8.276529,54.47987,Donegal,Bundoran,Republic of Ireland,Hotel
WatersEdge Hotel,http://www.watersedgehotel.ie,+353(0)214815566,-8.297908,51.849027,Cork,Cobh,Republic of Ireland,Hotel
Brook Lodge Hotel,http://www.brooklodgekillarney.com,+353(0)646631800,-9.512499,52.060785,Kerry,Killarney,Republic of Ireland,Hotel
Riverside Hotel Killarney,http://www.riversidehotelkillarney.com,+353(0)646639200,-9.507321,52.049159,Kerry,Killarney,Republic of Ireland,Hotel
Ballina Manor Hotel,http://ballinamanorhotel.ie/,+353(0)9680900,-9.15404,54.112587,Mayo,Ballina,Republic of Ireland,Hotel
Mulcahy's Hotel,http://www.mulcahys.ie,+353(0)526125054,-7.70171,52.353766,Tipperary,Clonmel,Republic of Ireland,Hotel
An Crúiscín Lán,http://www.cruiscin.ie,+353(0)91553148,-9.306534,53.243982,Galway,Spiddal,Republic of Ireland,Hotel
Travelodge Limerick,http://www.travelodge.ie/hotels/229/Limerick-Ennis-Road-hotel,35361457000,-8.6756236,52.673521,Limerick,Knock,Ireland,Hotel
Woodenbridge Lodge,http://www.woodenbridgehotel.com,+353(0)40235146,-6.23495287829587,52.8323229222345,Wicklow,Woodenbridge,Republic of Ireland,Hotel
The Pilgrims Rest Hotel,http://www.thepilgrimsrest.com,+353(0)5852917,-7.848526,52.183216,Waterford,Cappoquin,Republic of Ireland,Hotel
Downings Bay Hotel,http://www.downingsbayhotel.com,+353(0)749155586,-7.835622,55.194587,Donegal,Downings,Republic of Ireland,Hotel
Quality Hotel Youghal,http://www.qualityyoughal.com,+353(0)2493050,-7.872633,51.924996,Cork,Youghal,Republic of Ireland,Hotel
Malinbeg Hostel,http://www.malinbeghostel.com,+353(0)749730006,-8.72941910534666,54.7079733975011,Donegal,,Republic of Ireland,Hostel
Courtbrack Accommodation,,+353(0)61302500,-8.646733,52.655444,Limerick,Limerick City,Republic of Ireland,Hostel
Isaacs Hostel,http://www.facebook.com/isaacshosteldublin,+353(0)18556215,-6.253322,53.34998,Dublin,Dublin,Republic of Ireland,Hostel
Kinlay House Dublin,http://www.kinlaydublin.ie,+353(0)16796644,-6.269701,53.343801,Dublin,Dublin,Republic of Ireland,Hostel
"Sheilas Tourist Hostel
",http://www.sheilashostel.ie,+353(0)214505562,-8.465951,51.902614,Cork,Cork City,Republic of Ireland,Hostel
Dingle Gate Hostel,http://www.dinglegatehostel.com,+353(0)669157150,-10.028498,52.160462,Kerry,Annascaul,Republic of Ireland,Hostel
Cashel Holiday Hostel,http://www.cashelhostel.com,+353(0)6262330,-7.887698,52.516,Tipperary,Cashel,Republic of Ireland,Hostel
Old Monastery Hostel,http://www.oldmonasteryhostel.com,+353(0)872349543,-9.946109,53.551973,Galway,Letterfrack,Republic of Ireland,Hostel
Flanagan's Village Hostel,http://www.flanaganshostel.com,+353(0)657074564,-9.36859,53.02227,Clare,Doolin,Republic of Ireland,Hostel
Oliver St John Gogarty’s,http://www.gogartys.ie/hostel/,+353(0)16711822,-6.261697,53.345375,Dublin,Dublin,Republic of Ireland,Hostel
Killarney Railway Hostel,http://www.killarneyhostel.com,+353(0)646635299,-9.503186,52.060525,Kerry,Killarney,Republic of Ireland,Hostel
The Abbey Court Hostel,http://www.abbey-court.com/,+353(0)18780700,-6.260383,53.347532,Dublin,Dublin,Republic of Ireland,Hostel
Donegal Town Independent Hostel,http://www.donegaltownhostel.com,+353(0)749722805,-8.12595376836589,54.6561990067684,Donegal,Donegal Town,Republic of Ireland,Hostel
Rainbow Hostel,,+353(0)657074415,-9.370623,53.019764,Clare,Doolin,Republic of Ireland,Hostel
Dempsey's Hostel,http://www.hostelkinsale.com,+353(0)214772124,-8.514567,51.708141,Cork,Kinsale,Republic of Ireland,Hostel
Ballyvaughan,http://www.rentacottage.ie/self-catering/Clare/Ballyvaughan/Ballyvaughan_Holiday_Cottages_4_Bed_(Type_A)-1.html,+353(0)61411109,-9.1426320368281,53.1177577511564,Limerick,,Republic of Ireland,Self Catering Accommodation
Killarney Lakeland Cottages,http://www.killarneycottages.com,+353(0)646633290,-9.481653,52.030964,Kerry,Muckross,Republic of Ireland,Self Catering Accommodation
Old Deanery Holiday Cottages,http://www.olddeanerycottages.com,+353(0)9632221,-9.220393,54.212835,Mayo,Killala,Republic of Ireland,Self Catering Accommodation
Quilty Holiday Cottages,http://www.quiltycottages.com,+353(0)657087095,-9.44334131944732,52.8306000396342,Clare,Quilty,Republic of Ireland,Self Catering Accommodation
Kinsale Holiday Village,http://www.kinsaleholidayvillage.com,+353(0)214772488,-8.516539,51.709711,Cork,Kinsale,Republic of Ireland,Self Catering Accommodation
Ardnagashel Estate,https://twitter.com/search?q=rentacottageIRE&src=typd,+353(0)61411109,-9.472418,51.726924,Cork,Bantry,Republic of Ireland,Self Catering Accommodation
Dingle Marina Cottages,http://www.dinglecottages.com,+353(0)669150200,-10.281096,52.140331,Kerry,Dingle,Republic of Ireland,Self Catering Accommodation
Aughrim Holiday Village,https://www.tridentholidayhomes.ie/rentals/house-aughrim-aughrim-holiday-village-191983.html,+353(0)12018479,-6.330294,52.85331,Wicklow,Aughrim,Republic of Ireland,Self Catering Accommodation
Carraroe Holiday Village,http://www.carraroeholidaycottages.ie,+353(0)91551170,-9.601626,53.264241,Galway,Lettermore,Republic of Ireland,Self Catering Accommodation
Fairgreen Holiday Cottages,http://www.fairgreencottages.com,+353(0)749521247,-8.365927,54.953188,Donegal,Dungloe,Republic of Ireland,Self Catering Accommodation
Killarney's Holiday Village,https://twitter.com/search?q=killarney%20holidayvillage&src=typd,+353(0)646636667,-9.495926,52.040112,Kerry,Killarney,Republic of Ireland,"Self Catering Accommodation,Welcome Standard"
Heyward Mews,http://www.tridentholidayhomes.ie/rentals/rentals-swords-d459497/,+353(0)12018479,-6.271584,53.486051,Dublin,Swords,Republic of Ireland,Self Catering Accommodation
Seacliff Holiday Village,https://www.tridentholidayhomes.ie/rentals/house-dunmore-east-seacliff-holiday-homes-178065.html,+353(0)12018479,-6.9897,52.158867,Waterford,Dunmore East,Republic of Ireland,Self Catering Accommodation
Doonbeg Holiday Homes,https://twitter.com/search?q=rentacottageIRE&src=typd,+353(0)61411109,-9.500097,52.747711,Clare,Doonbeg,Republic of Ireland,Self Catering Accommodation
Tra Na Rosann,https://anoige.ie/tra-na-rosann/,+353(0)749155374,-7.804096,55.229375,Donegal,Downings,Republic of Ireland,Hostel
Knockree Youth Hostel,http://www.facebook.com/anoige,+353(0)12767981,-6.211837,53.17841,Wicklow,Knockree,Republic of Ireland,Hostel
Hilton Dublin Airport,http://www.facebook.com/hiltondublinairport,+353(0)18661800,-6.180028,53.403661,Dublin,Dublin,Republic of Ireland,Hotel
Coolanowle Country House,http://www.coolanowle.com,+353(0)598625176,-7.030013,52.907833,Carlow,,Republic of Ireland,B&B
Ballinsheen House & Gardens,http://www.ballinsheen.com,+353(0)657074806,-9.287852,53.034389,Clare,Lisdoonvarna,Republic of Ireland,B&B
Fortview House,http://www.fortview.com,+353(0)494338834,-7.340481,54.074129,Cavan,Cloverhill,Republic of Ireland,B&B
The Manse,http://www.cootehilltourism.com,353495552322,-7.084248,54.074193,Cavan,Cootehill,Republic of Ireland,B&B
Park House,http://www.parkhouse.ie,+353(0)61369902,-8.810057,52.706119,Clare,Bunratty,Republic of Ireland,B&B
Innisfree,http://www.innisfreebunratty.com,+353(0)61369773,-8.8084,52.710139,Clare,Bunratty,Republic of Ireland,B&B
Avarest,http://www.avarest.ie,+353(0)61360278,-8.843797,52.715778,Clare,Hurlers Cross,Republic of Ireland,B&B
Gallows View,http://www.bunratty-gallowsview.com,+353(0)61369125,-8.810918,52.716073,Clare,Bunratty,Republic of Ireland,B&B
Glencarrig,https://www.facebook.com/glencarrig,+353(0)659058209,-9.721323,52.592004,Clare,Carrigaholt,Republic of Ireland,B&B
Lakefield Lodge,http://www.lakefieldlodgebandb.com,+353(0)656837675,-9.061977,52.939716,Clare,Corofin,Republic of Ireland,B&B
Inchiquin View,https://www.facebook.com/inchiquinview.farmhouse,+353(0)656837731,-9.09143,52.972322,Clare,Kilnaboy,Republic of Ireland,B&B
Churchfield,http://www.doolinaccommodations.com,+353(0)657074209,-9.371226,53.019892,Clare,Doolin,Republic of Ireland,B&B
Riverdale Farmhouse,http://www.riverdaledoolin.com,+353(0)657074257,-9.347061,53.023344,Clare,Doolin,Republic of Ireland,B&B
Glasha Meadows,http://www.glashameadows.com,+353(0)657074443,-9.361815,53.033792,Clare,Doolin,Republic of Ireland,B&B
Doonagore Farmhouse,http://www.doolin-accommodation.com,+353(0)657074170,-9.388619,52.998352,Clare,Doolin,Republic of Ireland,B&B
Newpark House,http://www.newparkhouse.com,+353(0)656821233,-8.957143,52.854165,Clare,Ennis,Republic of Ireland,"B&B,B&Bs,Historic House"
Glen Cove,http://www.glencove.clareireland.net,+353(0)656824561,-8.945913,52.820018,Clare,Clarecastle,Republic of Ireland,B&B
Station House,http://stationhouse-bb.com,+353(0)657071149,-9.287932,52.936561,Clare,Ennistymon,Republic of Ireland,B&B
Crosswinds,http://www.crosswinds-lisdoonvarna.com,+353(0)657074469,-9.32051996658322,53.0167769125499,Clare,Lisdoonvarna,Republic of Ireland,B&B
An Gleann,http://www.angleann.net,+353(0)657084281,-9.382559,52.847555,Clare,,Republic of Ireland,B&B
Scapaflow,http://www.clare.ie/stay/scapaflow-bb/,35361377144,-8.5039871,52.7528811,Clare,Killaloe,Ireland,B&B
Clonmore Lodge,http://www.clonmorelodge.com,+353(0)657087020,-9.455001,52.799763,Clare,Quilty,Republic of Ireland,B&B
Channel View,http://www.channelviewbb.com,+353(0)2820440,-9.357086,51.484705,Cork,Baltimore,Republic of Ireland,B&B
Rathmore House,http://www.baltimorebb.com,+353(0)2820362,-9.342825,51.512831,Cork,Baltimore,Republic of Ireland,B&B
Ashgrove House,http://www.ashgrovebedandbreakfast.com,+353(0)238841033,-8.749268,51.743089,Cork,Bandon,Republic of Ireland,B&B
Doire Liath,http://www.bantrybedandbreakfasts.com/,+353(0)2750223,-9.446768,51.685186,Cork,Newtown,Republic of Ireland,B&B
Sea Mount B&B,http://www.seamountfarm.com,+353(0)2761226,-9.624338,51.633241,Cork,Bantry,Republic of Ireland,B&B
Lanesville,http://www.lanesvillebandb.com,+353(0)214381813,-8.549303,51.921502,Cork,Blarney,Republic of Ireland,B&B
Shannon Park House,http://www.inviteireland.com/Accommodation/carrigaline/shannon-park-house/1183/,+353(0)214372091,-8.39516,51.825419,Cork,Carrigaline,Republic of Ireland,B&B
Chestnut Lodge,http://www.chestnutlodge.ie,353868159053,-8.397366,51.832107,Cork,Carrigaline,Republic of Ireland,B&B
Sea Villa,http://www.seavilla.net,+353(0)2774369,-9.886169,51.75573,Cork,Ardgroom,Republic of Ireland,B&B
Sandycove House,http://www.sandycovehouse.com,+353(0)2836223,-9.198747,51.509557,Cork,Castletownshend,Republic of Ireland,B&B
Bay View House,http://www.bayviewclonakilty.com,+353(0)238833539,-8.880512,51.623448,Cork,Clonakilty,Republic of Ireland,B&B
Ballard House,,+353(0)238833865,-8.846567,51.637972,Cork,Clonakilty,Republic of Ireland,B&B
Tudor Lodge,http://www.tudorlodgecork.com,+353(0)238833046,-8.889478,51.625522,Cork,Clonakilty,Republic of Ireland,B&B
Duvane House,http://www.duvanefarmhouse.com,+353(0)238833129,-8.928934,51.612839,Cork,Clonakilty,Republic of Ireland,B&B
Melrose Bed & Breakfast,http://www.melrosewestcork.com,+353(0)238833956,-8.908599,51.617508,Cork,Clonakilty,Republic of Ireland,B&B
Macliam Lodge,https://www.macliamlodge.com/,353238835195,-8.9010003,51.6209794,Cork,Clonakilty,Ireland,B&B
Springfield House,http://www.springfieldhousebandb.com,+353(0)238840622,-8.94169055952454,51.5663345193079,Cork,Castlefreke,Republic of Ireland,B&B
Mountview House,http://www.mountviewcobh.blogspot.com,+353(0)214814260,-8.291899,51.853284,Cork,Cobh,Republic of Ireland,B&B
Caroleville,http://www.caroleville.com,+353(0)214294321,-8.430133,51.893781,Cork,Cork City,Republic of Ireland,B&B
Number Forty Eight,http://www.bbcorknumberfortyeight.com,+353(0)214505790,-8.456336,51.902333,Cork,Cork City,Republic of Ireland,B&B
Woodpoint,http://www.courtmacsherryangling.ie/?page_id=13,+353(0)238846427,-8.690766,51.634704,Cork,Courtmacsherry,Republic of Ireland,B&B
Galley Cove House,http://www.galleycovehouse.com,+353(0)2835137,-9.735651,51.464431,Cork,Crookhaven,Republic of Ireland,B&B
Island View House,https://www.islandviewhouse.net/,+353(0)2763081,-9.542959,51.751765,Cork,Glengarriff,Republic of Ireland,B&B
The Heron's Cove,http://www.heronscove.com,+353(0)2835225,-9.708978,51.495923,Cork,West Cork,Republic of Ireland,B&B
Glenlohane,https://www.facebook.com/GlenlohaneCountryHouse,+353(0)2950014,-8.850719,52.177136,Cork,Kanturk,Republic of Ireland,"B&B,B&Bs,Historic House"
Valley-View,http://www.valleyviewkinsale.com,+353(0)214772842,-8.538703,51.721826,Cork,Kinsale,Republic of Ireland,B&B
Ashgrove,http://homepage.eircom.net/~ashgrovebb/,+353(0)214774127,-8.529186,51.70761,Cork,Kinsale,Republic of Ireland,B&B
Greenmount House,,+353(0)214772674,-8.49824,51.708497,Cork,Kinsale,Republic of Ireland,B&B
Sea Gull House,http://www.bandbireland.com/accommodation/25808/sea-gull-house,+353(0)214772240,-8.524891,51.70714,Cork,Kinsale,Republic of Ireland,B&B
Fountain House,http://www.fountainhousemacroom.com,+353(0)2643813,-8.927426,51.874832,Cork,Macroom,Republic of Ireland,B&B
Findus House,http://www.findushouse.ie,+353(0)2640023,-9.074286,51.890201,Cork,Macroom,Republic of Ireland,B&B
Weston House B&B,https://www.facebook.com/WestonHouseIreland?fref=ts,+353(0)2645097,-9.17142297598263,51.9459979234101,Cork,Ballyvourney,Republic of Ireland,B&B
Park South,http://www.park-south.com,+353(0)2225296,-8.523922,52.226934,Cork,Doneraile,Republic of Ireland,B&B
Annabella Lodge,http://www.annabellalodge.com,+353(0)2243991,-8.65609975826646,52.1380667005272,Cork,Mallow,Republic of Ireland,B&B
Sundown House,http://www.sundownhousebb.com,+353(0)214667375,-8.084723,51.920977,Cork,Castlemartyr,Republic of Ireland,B&B
Marguerites,http://www.margueritesskibbereen.com,+353(0)2821166,-9.278006,51.541257,Cork,Skibbereen,Republic of Ireland,B&B
Shearwater Country House B&B,http://shearwaterbandb.com/,+353(0)2833178,-9.13057135581971,51.5581245715916,Cork,Union Hall,Republic of Ireland,B&B
PK Lodge,http://www.pklodgeskibbereen.com,+353(0)2821749,-9.239134,51.560277,Cork,Skibbereen,Republic of Ireland,B&B
Coolbawn Lodge Farmhouse,http://www.coolbawnlodge.com,+353(0)2838166,-9.332826,51.589705,Cork,Drimoleague,Republic of Ireland,B&B
Danny Minnies,http://www.dannyminnies.ie,+353(0)749548201,-8.31475602474182,55.0213687839684,Donegal,Annagry,Republic of Ireland,"B&B,Welcome Standard"
Elm Brook,,+353(0)719852615,-8.185912,54.499024,Donegal,Ballyshannon,Republic of Ireland,B&B
Westbrook House,http://www.westbrookhouse.ie,+353(0)749361067,-7.455658,55.142057,Donegal,Buncrana,Republic of Ireland,B&B
Caldra,http://www.caldrabandb.com,+353(0)749363703,-7.461378,55.144978,Donegal,Buncrana,Republic of Ireland,B&B
Killavil House,http://www.killavilhouse.com,+353(0)719841556,-8.262694,54.483987,Donegal,Bundoran,Republic of Ireland,B&B
Riversdale Country House,https://www.facebook.com/RiversdaleCountryHouse/,+353(0)749374017,-7.25993015729523,55.2539314787314,Donegal,Carndonagh,Republic of Ireland,B&B
Mevagh House,http://www.mevaghhouse.com,+353(0)749154708,-7.785543,55.176324,Donegal,Carrigart,Republic of Ireland,B&B
Trean House,https://www.facebook.com/treanhouse,+353(0)749367121,-7.06972203802865,55.2677944155024,Donegal,Inishowen,Republic of Ireland,"B&B,Welcome Standard"
The Bluestack Centre,http://www.donegalbluestacks.ie,+353(0)749735564,-8.18970327976228,54.6926531189407,Donegal,Donegal Town,Republic of Ireland,"Hostel,Welcome Standard"
Bayside,http://www.bayside.ie,+353(0)749722768,-8.121609,54.610024,Donegal,Laghey,Republic of Ireland,B&B
Ros-earl B&B,http://www.booking.com/hotel/ie/rosearl-b-amp-b.en-gb.html?,+353(0)749721462,-8.109945,54.648606,Donegal,Donegal Town,Republic of Ireland,B&B
Ardlenagh View,http://www.ardlenaghview.com,+353(0)749721646,-8.117911,54.633358,Donegal,,Republic of Ireland,B&B
Milltown House,http://www.milltownhousebandb.com,+353(0)749721985,-8.116967,54.633923,Donegal,Donegal Town,Republic of Ireland,B&B
Haywoods,http://www.littleireland.ie/haywoods,+353(0)749721236,-8.098833,54.653352,Donegal,,Republic of Ireland,B&B
Avalon,http://www.avalonbandbglenties.com,+353(0)749551292,-8.279082,54.790222,Donegal,Glenties,Republic of Ireland,B&B
Brennan's B&B,https://www.brennansbnb.ie,+353(0)749551235,-8.282142,54.796294,Donegal,Glenties,Republic of Ireland,B&B
Gartan Outdoor Education and Training Centre,http://www.gartan.com,+353(0)749137032,-7.90792375019384,54.994160480286,Donegal,Letterkenny,Republic of Ireland,"Hostel,Welcome Standard"
Ardlee,http://www.ardleehouse.ie,+353(0)749121943,-7.718962,54.957411,Donegal,Letterkenny,Republic of Ireland,B&B
Portobello B&B,http://www.portobellobandb.com/,+353(0)14543259,-6.273254,53.331974,Dublin,Dublin,Republic of Ireland,B&B
Millstream House,http://www.millstreamhouse.com,+353(0)6821129,-9.515209,52.443025,Kerry,Listowel,Republic of Ireland,B&B
Conamara House,http://www.conamarahouse.com,+353(0)9523530,-10.127291,53.416071,Galway,Ballyconneely,Republic of Ireland,B&B
Santa Cruz,http://www.santacruzbbdunlaoghaire.com,+353(0)12841334,-6.145764,53.28484,Dublin,,Republic of Ireland,B&B
Greenacres,http://www.greenacresrathcoole.com,+353(0)14580732,-6.499315,53.257096,Dublin,Newtown,Republic of Ireland,B&B
Brides Glen Farm House,http://www.bridesglenhouse.com,+353(0)12822510,-6.149718,53.239482,Dublin,Loughlinstown,Republic of Ireland,B&B
Beechwood Country House,http://www.beechwood.ie,+353(0)18463855,-6.14751539021301,53.4332932878384,Dublin,Malahide,Republic of Ireland,B&B
An Duna Ri,https://an-duna-ri-bed-breakfast.business.site/,+353(0)646633230,-9.4852331631946,52.0192645584861,Kerry,Muckross,Republic of Ireland,B&B
Lissyclearig Thatched Cottage,http://www.lissyclearigthatchedcottage.com,+353(0)646642562,-9.595596,51.900625,Kerry,Kenmare,Republic of Ireland,B&B
Seaview,http://www.bandbireland.com/accommodation/26108/seaview,+353(0)18315335,-6.161705,53.376969,Dublin,Raheny,Republic of Ireland,B&B
Annally,http://www.annally.ie,+353(0)18327485,-6.165006,53.379759,Dublin,Raheny,Republic of Ireland,B&B
Cashel Lodge,http://www.cashellodge.com,+353(0)18368935,-6.232624,53.379238,Dublin,Whitehall,Republic of Ireland,B&B
Heather View,https://www.heatherview.com/,+353(0)18453483,-6.177301,53.432828,Dublin,Kinsealy,Republic of Ireland,B&B
San Juan,http://www.sanjuan-guesthouse.com,+353(0)18460424,-6.20318,53.424467,Dublin,Kinsealy,Republic of Ireland,B&B
Woodview Farmhouse,http://www.woodviewfarmhouse.com,+353(0)18491528,-6.1565,53.575827,Dublin,Skerries,Republic of Ireland,B&B
Collinswood,http://www.bandbireland.com/accommodation/27935/collinswood-b-b,+353(0)18400966,-6.227312,53.461203,Dublin,Swords,Republic of Ireland,B&B
Clai Ban,http://www.claiban-house.com/,+353(0)9961111,-9.671875,53.12292,Galway,Aran Islands,Republic of Ireland,B&B
Abbeyville,http://www.abbeyvillebarna.com,+353(0)91592430,-9.150585,53.252152,Galway,Barna,Republic of Ireland,B&B
Hazelbrook,http://www.hazelbrook-connemara.net,+353(0)9544646,-10.11602,53.555386,Galway,Cleggan,Republic of Ireland,B&B
The Ocean Wave,http://www.oceanwave-bedandbreakfast.com,+353(0)9544775,-10.139026,53.55801,Galway,Cleggan,Republic of Ireland,B&B
Cois na Mara,http://www.coisnamara.net,+353(0)9544647,-10.121586,53.555917,Galway,Cleggan,Republic of Ireland,B&B
Cnoc Breac,http://www.cnocbreac.com,+353(0)9544688,-10.124743,53.557392,Galway,Cleggan,Republic of Ireland,B&B
Ben Breen House,http://www.benbreenhouse.ie/,+353(0)9541171,-10.029912,53.543151,Galway,Moyard,Republic of Ireland,B&B
Faul House,http://www.faulhouse.com,+353(0)9521239,-10.033501,53.477142,Galway,Clifden,Republic of Ireland,B&B
Rockmount House,http://www.rockmounthouse.com,+353(0)9521763,-10.098997,53.498581,Galway,Clifden,Republic of Ireland,B&B
Sea Mist House,http://www.seamisthouse.com,+353(0)9521441,-10.024337,53.488219,Galway,Clifden,Republic of Ireland,"B&B,B&Bs,Historic House"
The Wilderness,http://www.thewildernessbandb.com,+353(0)861035699,-9.900527,53.469666,Galway,Clifden,Republic of Ireland,B&B
Ardmore House,https://www.facebook.com/Ardmore-House-Bed-Breakfast-Sky-Road-Clifden-166966460027337/,+353(0)9521221,-10.10398,53.499591,Galway,Clifden,Republic of Ireland,B&B
Cregg House,https://www.bandbireland.com/accommodation/26162/cregg-house,+353(0)9521326,-9.977001,53.484326,Galway,Clifden,Republic of Ireland,B&B
Ballykine House,http://www.bedandbreakfastcong.com,+353(0)949546150,-9.348448,53.548818,Galway,Clonbur,Republic of Ireland,B&B
Corrib View,http://www.corribviewfarm.com,+353(0)91791114,-9.05873,53.368517,Galway,Annaghdown,Republic of Ireland,B&B
Abbey View,,+353(0)91524488,-9.09941,53.297916,Galway,Galway City,Republic of Ireland,B&B
Woodhaven Lodge,http://woodhavenlodge.com/,+353(0)91753806,-9.004623,53.276836,Galway,Merlin Park,Republic of Ireland,B&B
Woodville,http://www.woodvillegalway.com,+353(0)91524260,-9.112975,53.26103,Galway,Salthill,Republic of Ireland,B&B
Liskea House,http://www.bandbireland.com/accommodation/26549/liskea-house,+353(0)91584318,-9.066746,53.265849,Galway,Salthill,Republic of Ireland,B&B
The Western Way,http://www.westernwaybb.com,35391552475,-9.3198572,53.4302875,Galway,Oughterard,Ireland,B&B
Crossriver,https://www.bandbireland.com/accommodation/26370/crossriver-b-b,35391552676,-9.3225495,53.4325809,Galway,Oughterard,Ireland,B&B
Camillaun Lodge,https://www.camillaun.com/,35391552678,-9.31909699999999,53.4335531,Galway,Oughterard,Ireland,B&B
Riverwalk House,https://www.bandbireland.com/accommodation/25888/river-walk-house,35391552788,-9.325448,53.429063,Galway,Oughterard,Ireland,B&B
Corrib View Country House,https://www.bandbireland.com/accommodation/27104/corrib-view-country-house,35391552345,-9.26982,53.425799,Galway,Oughterard,Ireland,B&B
Gleann Treasna,,+353(0)91572474,-9.54573,53.260243,Galway,Rossaveal,Republic of Ireland,B&B
Errisbeg Lodge,http://www.errisbeglodge.com,+353(0)9535807,-9.952294,53.384581,Galway,Roundstone,Republic of Ireland,B&B
Rush Lake House,http://www.rushlakehouse.com,+353(0)9535915,-9.924923,53.391558,Galway,Roundstone,Republic of Ireland,B&B
Screebe House,http://screebe.com/,+353(0)91574110,-9.55702567990113,53.3842377502795,Galway,Connemara,Republic of Ireland,"B&B,B&Bs,Historic House"
Briseadh na Carraige,http://www.galwaybay.com,+353(0)91553212,-9.259394,53.246601,Galway,Spiddal,Republic of Ireland,B&B
Ardmor Country House,http://www.ardmorcountryhouse.com/,+353(0)91553145,-9.320589,53.243639,Galway,Spiddal,Republic of Ireland,B&B
Sea Shore,http://www.seashorebandbballybunion.com,+353(0)6827986,-9.669792,52.526562,Kerry,Ballybunion,Republic of Ireland,B&B
Castle View House,http://www.castleviewhouse.com,+353(0)6843304,-9.495796,52.573061,Kerry,Ballylongford,Republic of Ireland,B&B
Ferryview B&B,http://www.ferryview.com,+353(0)669472052,-10.268127,51.930456,Kerry,Cahersiveen,Republic of Ireland,B&B
San Antoine,http://www.sanantoine.com,+353(0)669472521,-10.2352138895491,51.9415917534671,Kerry,Cahersiveen,Republic of Ireland,B&B
Cul Draiochta,,+353(0)669473141,-10.2419320023013,51.9339642444902,Kerry,,Republic of Ireland,B&B
Iveragh Heights,http://www.iveraghheights.com,+353(0)669472545,-10.2135419828033,51.9506011352418,Kerry,,Republic of Ireland,B&B
Glenbrook House,https://www.glenbrookhouse.com/,353669764488,-9.49467499999999,52.1885969999999,Kerry,Killarney,Ireland,B&B
Tailors Lodge,https://www.facebook.com/Tailors-Lodge-Self-Catering-Accommodation-163739220374165/,353667142170,-9.457987,52.221184,Kerry,Castleisland,Republic of Ireland,"Self Catering Accommodation,Welcome Standard"
Castlemaine House,,+353(0)669767361,-9.702593,52.167968,Kerry,Castlemaine,Republic of Ireland,B&B
Mount Brandon Lodge,http://www.dingleway.com/accommodation/cloghane-bed-breakfast-mount-brandon-lodge.php?page=details,+353(0)667138117,-10.1817150158691,52.2362104512234,Kerry,Cloghane,Republic of Ireland,B&B
Coill An Rois,http://www.dinglebb.com,+353(0)669155475,-10.329186,52.216962,Kerry,Dingle,Republic of Ireland,B&B
Devanes,http://www.devanesdingle.com,+353(0)669151193,-10.2726631693115,52.1435652476259,Kerry,Dingle,Republic of Ireland,B&B
Ferriter's Cove,https://twitter.com/ferriters_cove,+353(0)669156295,-10.4444393888854,52.1779389775607,Kerry,Ballyferriter,Republic of Ireland,B&B
Dingle Heights,http://www.dingleheights.com,+353(0)669151543,-10.2802438601188,52.1444662480256,Kerry,Dingle,Republic of Ireland,B&B
Killfountain Farm,http://www.killfountain.com,+353(0)669151389,-10.298782,52.151266,Kerry,Dingle,Republic of Ireland,B&B
O'Neill B&B,http://www.oneillsbedandbreakfast.com,+353(0)669151639,-10.265397,52.139375,Kerry,Dingle,Republic of Ireland,B&B
Blackstones House,http://www.blackstoneshouse.com,+353(0)669760164,-9.879444,52.015517,Kerry,Glencar,Republic of Ireland,B&B
Ashfield B&B,http://www.ashfieldkenmare.com,+353(0)646642234,-9.569807,51.882638,Kerry,Kenmare,Republic of Ireland,B&B
Kenmare House B&B,http://www.kenmarehousebandb.com,+353(0)646641283,-9.59623638294215,51.8828060383634,Kerry,Kenmare,Republic of Ireland,B&B
Rockcrest House,http://www.visit-kenmare.com,+353(0)646641248,-9.588864,51.880118,Kerry,Kenmare,Republic of Ireland,B&B
Druid Cottage,http://www.druidcottagekenmare.com,+353(0)646641803,-9.598037,51.882813,Kerry,Kenmare,Republic of Ireland,B&B
Tara Farm,https://www.tarafarm.ie/tara-farm/,353646641272,-9.596826,51.877904,Kerry,Kenmare,Republic of Ireland,B&B
Oldchurch House,http://www.oldchurchkenmare.com,+353(0)646642054,-9.568459,51.884503,Kerry,Kenmare,Republic of Ireland,B&B
An Bruachan,http://www.bruachan.com,+353(0)646641682,-9.596002,51.887004,Kerry,Kenmare,Republic of Ireland,B&B
Doolin Cottage B&B,http://www.doolincottage.net,+353(0)657074762,-9.379064,53.016766,Clare,Doolin,Republic of Ireland,B&B
O'Sheas Ceol Na hAabhann,http://www.osheasceolnahabhann.com,+353(0)646641498,-9.600461,51.8923,Kerry,Kenmare,Republic of Ireland,B&B
The Caha's,http://cahaskenmare.com/,+353(0)646641271,-9.585233,51.888057,Kerry,Kenmare,Republic of Ireland,B&B
Birchwood,http://www.birchwoodkilgarvan.com,+353(0)646685473,-9.429964,51.906267,Kerry,Kilgarvan,Republic of Ireland,B&B
Windway House,http://www.bandbireland.com/accommodation/26349/windway-house,+353(0)646632835,-9.5162,52.062191,Kerry,Killarney,Republic of Ireland,B&B
Salmon Leap Farm,http://www.salmonleapfarm.com,+353(0)647753005,-9.329026,51.98486,Kerry,Killarney,Republic of Ireland,B&B
Dunn Court House,,+353(0)646634622,-9.465763,52.054709,Kerry,Killarney,Republic of Ireland,B&B
Cillcearn House,http://www.cillcearn.com,+353(0)646635670,-9.472381,52.057084,Kerry,Killarney,Republic of Ireland,B&B
Alderhaven Country Home,http://www.alderhaven.com,+353(0)646631982,-9.484176,52.057428,Kerry,Killarney,Republic of Ireland,B&B
Farmstead Lodge,http://homepage.eircom.net/~farmsteadlodge/,+353(0)669761968,-9.75344,52.0661,Kerry,Kilgobnet,Republic of Ireland,B&B
St Anthonys Lodge,http://www.best-bb-killarney.com/,+353(0)646631534,-9.489189,52.060523,Kerry,Killarney,Republic of Ireland,B&B
Reeks View,http://www.reeksview.com,+353(0)646633910,-9.466098,52.070561,Kerry,Killarney,Republic of Ireland,B&B
Dromhall Heights,http://www.dromhall-heights.com,+353(0)646632662,-9.501818,52.053538,Kerry,Killarney,Republic of Ireland,B&B
Wayside,http://www.waysidekillarney.com,+353(0)646644284,-9.633293,52.053702,Kerry,Killarney,Republic of Ireland,B&B
Carriglea House and Courtyard Cottages,http://www.carrigleahouse.com,+353(0)646631116,-9.49175906688219,52.0372907920747,Kerry,Killarney,Republic of Ireland,"B&B,Welcome Standard"
Ardree House,http://www.ardreehouse.com,+353(0)646632593,-9.506655,52.055165,Kerry,Killarney,Republic of Ireland,B&B
Flesk Lodge,http://www.flesklodge.com,353646632135,-9.5059057,52.0488668,Kerry,Killarney,Ireland,B&B
Emerville House,http://www.emervillehouse.com,+353(0)646633342,-9.50488,52.055488,Kerry,Killarney,Republic of Ireland,B&B
Valley View Farmhouse,http://www.valleyview-farmhouse.com,+353(0)646631206,-9.445725,52.013966,Kerry,Muckross,Republic of Ireland,B&B
Lios na Manach,,+353(0)646631283,-9.46598813757327,52.0465847876704,Kerry,Muckross,Republic of Ireland,B&B
Gormans,http://www.gormanscountryhome.com,+353(0)646633149,-9.515562,52.109192,Kerry,Killarney,Republic of Ireland,B&B
Elyod House,http://www.elyodhouse.com,+353(0)646636544,-9.513838,52.052173,Kerry,Killarney,Republic of Ireland,B&B
Palmgrove House,,+353(0)6821857,-9.439159,52.453005,Kerry,Listowel,Republic of Ireland,B&B
North County House,https://northcountyhouse.ie/,+353(0)6821238,-9.48338,52.446981,Kerry,Listowel,Republic of Ireland,B&B
Larkin's Pub Restaurant B&B,http://www.larkinspub.ie,+353(0)669767217,-9.717521,52.145046,Kerry,Milltown,Republic of Ireland,"B&B,Welcome Standard"
The Waterfront,https://www.facebook.com/pages/The-Waterfront-BB-Portmagee/102320913178356,+353(0)669477208,-10.360767,51.884901,Kerry,Portmagee,Republic of Ireland,B&B
Sneem River Lodge,http://www.sneemriverlodge.ie/indexmain.html,+353(0)646645578,-9.906036,51.835713,Kerry,Sneem,Republic of Ireland,B&B
Gurrane,,+353(0)667124734,-9.684066,52.281732,Kerry,Tralee,Republic of Ireland,B&B
Bayview House,http://www.bayviewhousetralee.com,+353(0)667129974,-9.738322,52.279869,Kerry,Tralee,Republic of Ireland,B&B
Bleach Farmhouse,http://www.bleachfarmhouse.com,+353(0)667121785,-9.699124,52.270683,Kerry,Blennerville,Republic of Ireland,B&B
Shangri-la,http://www.shangrilabandbtralee.com,+353(0)667136214,-9.7912024460154,52.274978755554,Kerry,Tralee,Republic of Ireland,B&B
Golf Links View,http://www.golflinksview.com,+353(0)669474623,-10.179289,51.842345,Kerry,Waterville,Republic of Ireland,B&B
Old Cable Historic House,http://www.oldcablehouse.com,+353(0)669474233,-10.172036,51.831558,Kerry,,Republic of Ireland,"B&B,B&Bs,Historic House"
Klondyke House,http://www.watervillebandb.com,+353(0)669474119,-10.176066,51.834077,Kerry,Waterville,Republic of Ireland,B&B
Curragh Plains,http://bandbnewbridge.com/,+353(0)45442015,-6.792001,53.149243,Kildare,,Republic of Ireland,B&B
Eaglehill B&B,http://www.facebook.com/eaglehillbandb,+353(0)45526097,-6.875725,53.091394,Kildare,The Curragh,Republic of Ireland,B&B
Martinstown House,https://www.facebook.com/MartinstownHouse,+353(0)45441269,-6.82190372442357,53.1074196245905,Kildare,The Curragh,Republic of Ireland,"B&B,B&Bs,Historic House"
Cloncarlin House,http://www.cloncarlinhouse.com,+353(0)45525722,-7.027147,53.136592,Kildare,Monasterevan,Republic of Ireland,B&B
Aran Lodge,http://www.aran-lodge.com,+353(0)2750378,-9.441754,51.723123,Cork,Ballylickey,Republic of Ireland,B&B
Bungalow Farmhouse,http://www.bungalowbb.com,+353(0)568835215,-7.510049,52.724031,Kilkenny,Freshford,Republic of Ireland,B&B
Brandon View House,https://www.facebook.com/Brandonviewhousebedandbreakfast/,+353(0)599724625,-6.901718,52.51184,Kilkenny,Graiguenamanagh,Republic of Ireland,B&B
Grove Farmhouse,http://www.bandbs.ie/bedandbreakfast/grove-farmhouse-bb-kilkenny/,+353(0)567758467,-7.095248,52.471511,Kilkenny,Inistioge,Republic of Ireland,B&B
Auburndale,http://www.auburndale.ie,+353(0)567762716,-7.25107607605741,52.6346575189826,Kilkenny,Kilkenny City,Republic of Ireland,B&B
The Rise,http://www.therisedunmore.com,+353(0)567764534,-7.255472,52.684079,Kilkenny,Dunmore,Republic of Ireland,B&B
Coolmore Farmhouse,http://www.coolmorefarmhouse.com,+353(0)567768727,-7.226291,52.458307,Kilkenny,Knocktopher,Republic of Ireland,B&B
Oldtown Farmhouse,http://www.oldtownfarmhouse.com,+353(0)567728224,-7.210139,52.521353,Kilkenny,Stoneyford,Republic of Ireland,B&B
Roundwood House,http://www.roundwoodhouse.com,+353(0)578732120,-7.525144,53.0273,Laois,Mountrath,Republic of Ireland,"B&B,B&Bs,Historic House"
Laois County Lodge,http://www.laoiscountylodge.com,+353(0)578620472,-7.278501,53.038521,Laois,Portlaoise,Republic of Ireland,B&B
Ivyleigh House,http://www.ivyleigh.com,+353(0)578622081,-7.30000105522538,53.035758,Laois,Portlaoise,Republic of Ireland,B&B
Coolrahnee House,http://www.coolrahneehouseaskeaton.com/,+353(0)61398883,-8.980777,52.603402,Limerick,Askeaton,Republic of Ireland,B&B
Ballingowan House,https://www.bandbireland.com/accommodation/25975/ballingowan-house,+353(0)6962341,-9.031212,52.459825,Limerick,Newcastle West,Republic of Ireland,B&B
Melview Lodge,http://www.melviewlodge.com,+353(0)433345061,-7.791233,53.756633,Longford,,Republic of Ireland,B&B
Achill Isle House,http://www.achillislehouse.com,+353(0)9843355,-10.086042,53.974223,Mayo,Newtown,Republic of Ireland,B&B
West Coast House,http://www.achillwestcoasthousebandb.com/,+353(0)9843317,-10.112938,53.976274,Mayo,,Republic of Ireland,B&B
Templecarrig House,https://www.templecarrighouse.com/,353949546818,-9.221627,53.572568,Mayo,Ballinrobe,Ireland,B&B
Keadyville House B&B,https://keadyvillehousebandb.com/,+353(0)9643288,-9.35947,54.274776,Mayo,Ballycastle,Republic of Ireland,B&B
The Yellow Rose B&B,http://www.bandbireland.com/accommodation/26539/the-yellow-rose-b-b,+353(0)9643125,-9.561145,54.307651,Mayo,Belderrig,Republic of Ireland,B&B
Hillcrest House,,+353(0)9783494,-9.740963,54.144608,Mayo,Bangor Erris,Republic of Ireland,B&B
Doogarry House,http://www.doogarryhouse.com,+353(0)949021793,-9.26301,53.8526,Mayo,Castlebar,Republic of Ireland,B&B
Millhill House,http://www.millhillcastlebar.com,+353(0)949024279,-9.350333,53.820319,Mayo,Castlebar,Republic of Ireland,B&B
Rose Garden,,+353(0)949021162,-9.298632,53.853379,Mayo,Castlebar,Republic of Ireland,B&B
Granuaile House,http://granuailehouse.islandswest.ie/,+353(0)9826250,-9.952312,53.799888,Mayo,Clare Island,Republic of Ireland,B&B
Valley Lodge,http://www.valleylodgeaccommodation.com,+353(0)949365180,-9.05803999812466,53.7842512858347,Mayo,Claremorris,Republic of Ireland,B&B
Casa Mia,,+353(0)949371405,-8.995134,53.721368,Mayo,Claremorris,Republic of Ireland,B&B
Nymphsfield House,http://www.nymphsfieldhouse.com,+353(0)949546320,-9.272576,53.544615,Mayo,Cong,Republic of Ireland,B&B
Hill View Farm,,+353(0)949546500,-9.290112,53.550315,Mayo,Cong,Republic of Ireland,B&B
Hazel Grove,http://www.hazelgrove.net,+353(0)949546060,-9.292407,53.556758,Mayo,Cong,Republic of Ireland,B&B
Aisling House,https://www.bandbireland.com/accommodation/26090/aisling-house,353949388558,-8.910092,53.793525,Mayo,Knock,Republic of Ireland,B&B
Windemere,,+353(0)949388326,-8.91529352508474,53.7849949603646,Mayo,Knock,Republic of Ireland,B&B
Ponderosa,http://www.ponderosamayo.com,+353(0)9866440,-9.801918,53.763059,Mayo,Louisburgh,Republic of Ireland,B&B
The Three Arches,http://www.thethreearchesbandb.com,+353(0)9866484,-9.859709,53.761951,Mayo,Louisburgh,Republic of Ireland,B&B
Cuaneen House,http://www.cuaneenhouse.com,+353(0)9866460,-9.829117,53.768128,Mayo,Louisburgh,Republic of Ireland,B&B
Elderberry,https://www.bandbireland.com/accommodation/28063/elderberry-b-b,3539826374,-9.521234,53.804907,Mayo,Westport,Republic of Ireland,B&B
Drummin House,,+353(0)9827427,-9.527038,53.797612,Mayo,Westport,Republic of Ireland,B&B
Woodbine Cottage,http://www.woodbinecottagewestport.com,+353(0)9829143,-9.52254114777836,53.8042558152468,Mayo,Westport,Republic of Ireland,B&B
Seapoint House,,+353(0)9841254,-9.60346,53.845737,Mayo,Westport,Republic of Ireland,B&B
Brooklodge,http://www.brooklodgebandb.com,+353(0)9826654,-9.521235,53.805861,Mayo,Westport,Republic of Ireland,B&B
Lurgan House,http://www.bandbwestport.com,+353(0)9827126,-9.53491691401677,53.79263211236,Mayo,Westport,Republic of Ireland,B&B
Drumhowan Country House,,+353(0)429745924,-6.82479506646609,54.0978386149387,Monaghan,Castleblayney,Republic of Ireland,"Self Catering Accommodation,Welcome Standard"
Hilton Park,http://www.facebook.com/hiltonpark,+353(0)4756007,-7.23638982947352,54.1433003338426,Monaghan,Scotshouse,Republic of Ireland,"B&B,B&Bs,Historic House"
Gleneven House,http://www.gleneven.com,+353(0)429378294,-6.572569,54.001937,Monaghan,Inniskeen,Republic of Ireland,B&B
Dun Cromain Bed and Breakfast,http://www.duncromain.com,353579153966,-7.997331,53.189927,Offaly,Banagher,Republic of Ireland,B&B
The Ring Farmhouse,http://www.irishfarmhouseholiday.com,353579120976,-7.882425,53.078748,Offaly,Birr,Republic of Ireland,B&B
Littlewood,http://www.littlewood.ie,353579351364,-7.517074,53.312325,Offaly,Durrow,Republic of Ireland,B&B
Seashore,http://www.seashoreguests.com,+353(0)719167827,-8.571816,54.209008,Sligo,Ballisodare,Republic of Ireland,B&B
Ballincrone,,+353(0)719130110,-8.52782056757212,54.2068161908531,Sligo,Ballisodare,Republic of Ireland,B&B
Millhouse,http://www.sligo-accommodation.com,+353(0)719183449,-8.513395,54.085791,Sligo,Ballymote,Republic of Ireland,B&B
Mountain Inn,http://www.mountaininnireland.com,+353(0)719167225,-8.605238,54.171354,Sligo,Coolaney,Republic of Ireland,B&B
Yeats Lodge,https://www.facebook.com/yeatslodgebedandbreakfast/,+353(0)719173787,-8.495607,54.33181,Sligo,Drumcliffe,Republic of Ireland,B&B
Benbulben Farm,http://www.benbulbenfarmhouse.com,+353(0)719173956,-8.48756549737549,54.3527030542108,Sligo,Drumcliffe,Republic of Ireland,B&B
Tara,http://www.tarafarmhouse.com,+353(0)9636398,-9.106541,54.187803,Sligo,Enniscrone,Republic of Ireland,B&B
Philmar House,http://www.philmarhousesligo.ie,+353(0)719145014,-8.504454,54.298183,Sligo,,Republic of Ireland,B&B
Teach Eamainn,http://www.teacheamainn.com,+353(0)719143393,-8.44015,54.279825,Sligo,,Republic of Ireland,B&B
Bansha House,http://www.banshahouse.com,+353(0)6254194,-8.061166,52.455579,Tipperary,Bansha,Republic of Ireland,B&B
Lismacue House,http://www.lismacue.com,+353(0)6254106,-8.050407,52.446922,Tipperary,Bansha,Republic of Ireland,"B&B,B&Bs,Historic House"
Foxford Farm House,http://www.foxfordfarmhouse.net/,+353(0)6254552,-8.093882,52.438076,Tipperary,Foxford,Republic of Ireland,B&B
Lacken Lodge,http://www.lackenlodge.com,35361379083,-8.436704,52.748144,Tipperary,Birdhill,Republic of Ireland,B&B
Carrigeen Castle,http://www.carrigeencastle.com,+353(0)527441370,-7.931886,52.37614,Tipperary,Cahir,Republic of Ireland,B&B
The Rectory,,+353(0)527441406,-7.921723,52.379114,Tipperary,Cahir,Republic of Ireland,B&B
Tinsley House,http://www.tinsleyhouse.com,+353(0)527441947,-7.923976,52.375332,Tipperary,Cahir,Republic of Ireland,B&B
Rockville House,,+353(0)6261760,-7.888021,52.518878,Tipperary,Cashel,Republic of Ireland,B&B
Benuala,http://www.dirl.com/tipperary/benuala.htm,+353(0)526122158,-7.73042,52.351151,Tipperary,Clonmel,Republic of Ireland,B&B
Hawthorn View,,+353(0)50421710,-7.78520185867809,52.6391674699026,Tipperary,Thurles,Republic of Ireland,B&B
Clonmore House,http://www.clonmorehouse.com,+353(0)6251637,-8.172023,52.470373,Tipperary,Tipperary Town,Republic of Ireland,B&B
Glasha,http://www.glashafarmhouse.com,+353(0)526136108,-7.75902245935569,52.2758987444185,Waterford,,Republic of Ireland,B&B
Sommerville,,+353(0)51383843,-7.005854,52.148031,Waterford,Dunmore East,Republic of Ireland,B&B
Avon Lodge B&B,http://www.facebook.com/AvonlodgeBandB/,+353(0)51385775,-6.999244,52.155725,Waterford,Dunmore East,Republic of Ireland,B&B
Greenfield House,http://www.greenfieldhousemallow.com,+353(0)2250231,-8.66156,52.13593,Cork,Mallow,Republic of Ireland,B&B
Reades Farmhouse B&B,http://www.readesbandb.com,+353(0)51898430,-7.184306,52.396743,Waterford,Mullinavat,Republic of Ireland,B&B
Lough Bishop House,http://www.loughbishophouse.com,353449661313,-7.26473089999999,53.6342953,Westmeath,Collinstown,Ireland,"B&B,B&Bs,Historic House"
Hounslow House,http://www.hounslowhouse.com/,353449661144,-7.229234,53.691573,Westmeath,Fore,Republic of Ireland,B&B
Lough Owel Lodge,http://www.loughowellodge.com,353449348714,-7.357443,53.560146,Westmeath,Mullingar,Republic of Ireland,B&B
Marlinstown Court,http://www.marlinstowncourt.com,353449340053,-7.305911,53.522327,Westmeath,Mullingar,Republic of Ireland,B&B
Glenmore House,http://www.glenmorehousebandb.ie/,353449348905,-7.32138889999999,53.5249225,Westmeath,Mullingar,Ireland,B&B
Glendine Country House,http://www.glendinehouse.com,+353(0)51389500,-6.949037,52.242608,Wexford,Arthurstown,Republic of Ireland,B&B
Marsh Mere Lodge,http://www.marshmerelodge.com,+353(0)51389186,-6.956033,52.243115,Wexford,Arthurstown,Republic of Ireland,B&B
Arthur's Rest,,+353(0)51389192,-6.95074,52.242232,Wexford,Arthurstown,Republic of Ireland,B&B
Stone Lodge Bed and Breakfast,http://www.stonelodgebandb.com/,+353(0)539425765,-6.232746,52.636211,Wexford,Courtown,Republic of Ireland,B&B
Woodlands Country House,http://www.woodlandscountryhouse.com,+353(0)40237125,-6.275445,52.725721,Wexford,Gorey,Republic of Ireland,B&B
Groveside Farm,http://www.grovesidefarm.com,+353(0)539135305,-6.572782,52.212186,Wexford,Kilmore Quay,Republic of Ireland,B&B
Glendower House,http://glendowerhouse.com/,+353(0)51421989,-6.925892,52.386553,Wexford,New Ross,Republic of Ireland,B&B
Blackrath Farmhouse,http://www.blackrathfarmhouse.com,+353(0)45403247,-6.784089,53.050212,Kildare,Colbinstown,Republic of Ireland,B&B
Ashley Lodge,http://www.ashley-lodge.com,+353(0)539131991,-6.397016,52.242284,Wexford,Rosslare Harbour,Republic of Ireland,B&B
O'Leary's Farm House B&B,http://www.olearysfarm.com,+353(0)539133134,-6.329722,52.228013,Wexford,Kilrane,Republic of Ireland,B&B
Rathaspeck Manor,http://www.rathaspeckmanor.ie,+353(0)539141672,-6.49895234127802,52.3063545021027,Wexford,,Republic of Ireland,B&B
Killurin Lodge,http://www.killurinlodge.com,+353(0)539128013,-6.57939084136955,52.3854775604586,Wexford,Killurin,Republic of Ireland,B&B
Glen Hill,http://www.glenhillbandb.com,+353(0)539120015,-6.530966,52.339869,Wexford,Barntown,Republic of Ireland,B&B
Carbery Cottage Guest Lodge,http://www.carbery-cottage-guest-lodge.net,+353(0)2761368,-9.57533,51.617549,Cork,Durrus,Republic of Ireland,B&B
Portumna House,http://www.portumnahouse.com,+353(0)909741078,-8.22406613750879,53.0946708147277,Galway,Portumna,Republic of Ireland,B&B
Ard na Greine,http://www.ardnagreine.eu,+353(0)527443059,-7.91559333068255,52.3774256654923,Tipperary,Cahir,Republic of Ireland,B&B
Mount Usher View,http://www.mountusherview.com,+353(0)40440543,-6.107553,53.009328,Wicklow,Ashford,Republic of Ireland,B&B
Carriglen,http://www.carriglen.com,+353(0)40440627,-6.12027,53.015609,Wicklow,Ashford,Republic of Ireland,B&B
Ballinclea House,http://www.ballincleahouse.com,+353(0)40447118,-6.093935,52.891845,Wicklow,Brittas Bay,Republic of Ireland,B&B
Tynte House,http://www.tyntehouse.com/welcome.htm,+353(0)45401561,-6.701445,53.058191,Wicklow,,Republic of Ireland,B&B
Ferndale,http://www.ferndalehouse.com,+353(0)12863518,-6.169612,53.192657,Wicklow,Enniskerry,Republic of Ireland,B&B
Coolakay House,http://www.coolakayhouse.ie,+353(0)12862423,-6.18816,53.166686,Wicklow,Enniskerry,Republic of Ireland,B&B
Atlantic Haven,http://www.atlantic-haven.com,+353(0)719166547,-8.48995480160522,54.4162822151248,Sligo,Grange,Republic of Ireland,B&B
Abhainn Mor B&B,http://www.abhainnmor.com/,+353(0)40446330,-6.23981472994,52.9121230391788,Wicklow,Rathdrum,Republic of Ireland,B&B
Lettermore,http://www.wicklow-accommodation.com,+353(0)40446506,-6.241372,52.913911,Wicklow,Rathdrum,Republic of Ireland,B&B
Glen Na Smole,,+353(0)40467945,-6.063022,52.970798,Wicklow,,Republic of Ireland,B&B
Sea Crest Farmhouse,http://www.seacrest-clare.com,+353(0)657087544,-9.435978,52.810292,Clare,Quilty,Republic of Ireland,B&B
Glengorse,,+353(0)40467926,-6.050137,52.978237,Wicklow,,Republic of Ireland,B&B
McCabe's B&B,https://twitter.com/Bunratty1,+353(0)61364330,-8.833838,52.71259,Clare,Sixmilebridge,Republic of Ireland,B&B
Fortfield Farm,http://www.fortfieldfarm.com,+353(0)659052533,-9.391504,52.635218,Clare,Killimer,Republic of Ireland,B&B
Brooklane Hotel,http://www.brooklanehotel.com,+353(0)646642077,-9.591799,51.883586,Kerry,Kenmare,Republic of Ireland,Hotel
Orchard View Holiday Home,,353495552604,-7.03906607864531,54.0529735916894,Cavan,Cootehill,Republic of Ireland,Self Catering Accommodation
Cliff View,http://www.doolinselfcatering.com,+353(0)657074209,-9.38837565295216,53.0137257918605,Clare,Doolin,Republic of Ireland,Self Catering Accommodation
Country Cottages,http://rayscottages.clareireland.net/,+353(0)657077071,-9.124042,53.128182,Clare,Ballyvaughan,Republic of Ireland,Self Catering Accommodation
Strasburgh Manor,http://www.strasburghmanor.com,+353(0)656839125,-9.049723,52.822419,Clare,Inch,Republic of Ireland,Self Catering Accommodation
Beara Holiday Homes,http://www.bearaholidayhomes.com,+353(0)2770219,-10.039142,51.627989,Cork,Allihies,Republic of Ireland,Self Catering Accommodation
Lahanaght House,http://www.lahanaghthouse.com,+353(0)2831293,-9.199659,51.651546,Cork,Drimoleague,Republic of Ireland,Self Catering Accommodation
Rolf's Holiday Cottages,https://rolfscountryhouse.com/cottages/,+353(0)2820289,-9.368592,51.479594,Cork,Baltimore,Republic of Ireland,Self Catering Accommodation
Bere Island Holiday Home,http://www.bereislandholidayhomes.com/,+353(0)868845709,-9.829112,51.635369,Cork,Ardagh,Republic of Ireland,Self Catering Accommodation
Ballinacurra House,http://www.ballinacurra.com,+353(0)214779040,-8.556499,51.712163,Cork,Ballinacurra,Republic of Ireland,Self Catering Accommodation
25 Silver Strand,,+353(0)214381791,-8.021015,51.831429,Cork,Ballycotton,Republic of Ireland,Self Catering Accommodation
Dunmanus Cottage,https://dunmanuscottage.ie,+353(0)214381634,-9.542522,51.60265,Cork,Durrus,Republic of Ireland,Self Catering Accommodation
Number 4 Castle End,http://www.baltimoreyachtcharters.com,+353(0)2820160,-9.373144,51.483972,Cork,Baltimore,Republic of Ireland,Self Catering Accommodation
Laffertys Holiday Homes,,+353(0)749136247,-7.917132,55.171784,Donegal,Dunfanaghy,Republic of Ireland,Self Catering Accommodation
Donegal Estuary Holiday Homes,http://www.donegalestuaryholidayhomes.com,+353(0)749721773,-8.1413,54.646748,Donegal,Donegal Town,Republic of Ireland,Self Catering Accommodation
Pine View,https://www.facebook.com/pages/Pine-View-Self-Catering-Donegal-Town/123284207686973,+353(0)749722354,-8.16852267710601,54.6659054402695,Donegal,Mountcharles,Republic of Ireland,Self Catering Accommodation
Arasain Bhalor,https://www.facebook.com/ArasainBhalor/,+353(0)749162787,-8.103158,55.136451,Donegal,Falcarragh,Republic of Ireland,Self Catering Accommodation
Dromore House,,353749734038,-8.153358,54.571411,Donegal,Dromore,Republic of Ireland,Self Catering Accommodation
Seabreeze & Kinnegar Cottages,http://www.rathmullanholidayhomes.com,+353(0)749158224,-7.555494,55.091508,Donegal,Rathmullan,Republic of Ireland,Self Catering Accommodation
Millstone Cottages,http://www.millstonecottages.com,353749153726,-7.667255,55.107676,Donegal,Milford,Republic of Ireland,Self Catering Accommodation
Rathmines (Dublin 6),,+353(0)14515021,-6.271658,53.324146,Dublin,Rathmines,Republic of Ireland,Self Catering Accommodation
Harap Farm,http://www.dublinselfcatering.ie,+353(0)18401285,-6.226528,53.491145,Dublin,Swords,Republic of Ireland,Self Catering Accommodation
9 Baggot Rath House (No. 8 & No. 9),http://www.yourhomefromhome.com/property/baggot-rath-house-apartments-2-bed,+353(0)16781100,-6.223849,53.3342,Dublin,Ballsbridge,Republic of Ireland,Self Catering Accommodation
Arbutus Lodge Apartments,http://www.arbutuslodge.ie,+353(0)646634914,-9.560084,52.076805,Kerry,Aghadoe,Republic of Ireland,Self Catering Accommodation
Kerry Cottages,http://www.kerrycottages.com,+353(0)12806336,-10.0000592885393,52.2441438863054,Kerry,Castlegregory,Republic of Ireland,Self Catering Accommodation
Dromatouk Cottage,,+353(0)646641608,-9.542951,51.886501,Kerry,Kenmare,Republic of Ireland,Self Catering Accommodation
Dan's Cottage,http://www.danscottage.com,+353(0)646641283,-9.59591887846943,51.882793514901,Kerry,Kenmare,Republic of Ireland,Self Catering Accommodation
Portmagee Seaside Cottages,https://www.facebook.com/PortmageeSeasideCottages,+353(0)669477151,-10.3312516153029,51.8893334928485,Kerry,Portmagee,Republic of Ireland,Self Catering Accommodation
Ivy House,http://www.selfcateringvalentiaisland.com,353876323658,-10.288855,51.920992,Kerry,Knightstown,Republic of Ireland,Self Catering Accommodation
Glenview Cottage,http://www.glenviewcottage.com,353669764359,-9.541379,52.127068,Kerry,Killarney Outer Area North,Republic of Ireland,Self Catering Accommodation
Westland Holiday Homes,,+353(0)876370737,-9.77046685240558,51.8033069292201,Kerry,Tuosist,Republic of Ireland,Self Catering Accommodation
Courtyard Cottages,http://www.countykerryholidays.com,353667124494,-9.73188,52.246466,Kerry,Tralee Town Area West,Republic of Ireland,Self Catering Accommodation
Drumville,https://www.booking.com/hotel/ie/drumville-house.en-gb.html,+353(0)669767337,-9.76024299002193,52.1756098481707,Kerry,Castlemaine,Republic of Ireland,Self Catering Accommodation
Beech Lodge (Kildare),http://www.ballindrumfarm.com,+353(0)598626294,-6.88479523642354,53.0096215199096,Kildare,Athy,Republic of Ireland,Self Catering Accommodation
Ashwell Cottage,http://www.ashwellcottage.com,35345879167,-6.61120099999999,53.231344,Kildare,Johnstown,Ireland,Self Catering Accommodation
The Coach Yard,http://www.blanchville.ie,+353(0)567727197,-7.13253541887193,52.6280723472478,Kilkenny,Kilkenny City,Republic of Ireland,Self Catering Accommodation
Ballykeeffe Farmhouse,http://www.ballykeeffefarmhouse.com,+353(0)567769265,-7.380808,52.608284,Kilkenny,Kilmanagh,Republic of Ireland,Self Catering Accommodation
Brielle House,http://www.briellehouse.ie,+353(0)578644329,-7.324429,53.112562,Laois,Irishtown,Republic of Ireland,Self Catering Accommodation
Springfield Castle,https://www.facebook.com/springfieldcastleireland,+353(0)6383162,-8.955724,52.351824,Limerick,Drumcollogher,Republic of Ireland,Self Catering Accommodation
Kelly Cottage,http://www.mulrannyselfcatering.com/welcome.html,+353(0)9836180,-9.678342,53.905318,Mayo,Westport,Republic of Ireland,Self Catering Accommodation
Green Acres,http://www.selfcatering-mayo.com,+353(0)949365375,-9.065298,53.790923,Mayo,Ballinlough,Republic of Ireland,Self Catering Accommodation
Bunlough Strand Bungalow,http://www.bunloughstrandbungalow.com,+353(0)949025578,-9.8988548424063,53.7053835673027,Mayo,Killadoon,Republic of Ireland,Self Catering Accommodation
Achill Cottages,https://www.facebook.com/achillcottages,+353(0)9845200,-9.94584667803132,53.9316491601523,Mayo,,Republic of Ireland,Self Catering Accommodation
Acorn Cottage and Clew Bay Cottage,https://mulranny.ie/14a-acorn-cottage-mulranny,+353(0)14562273,-9.778022,53.906622,Mayo,Mulranny,Republic of Ireland,Self Catering Accommodation
12 Mulranny Holiday Village,,+353(0)949023877,-9.781678,53.907326,Mayo,Mulranny,Republic of Ireland,Self Catering Accommodation
Achill Stone Cottage,http://www.ihacom.co.uk/Holiday-rental-Dugort/2-Slievemore-Holiday-Village_61928_1.htm,+353(0)12803040,-10.036232,54.000684,Mayo,,Republic of Ireland,Self Catering Accommodation
Dillons Cottage,http://www.dillonscottage.com,+353(0)861690154,-7.003174,54.125124,Monaghan,Rockcorry,Republic of Ireland,Self Catering Accommodation
The Waters Edge,,+353(0)9649255,-8.756791,54.269674,Sligo,Templeboy,Republic of Ireland,Self Catering Accommodation
Beach House,,+353(0)91755636,-9.098678,54.210825,Sligo,Enniscrone,Republic of Ireland,Self Catering Accommodation
Orchard Cottage,https://selfcater.com/orchard-cottage-10,+353(0)719169545,-8.495963,54.232942,Sligo,Carraroe,Republic of Ireland,Self Catering Accommodation
Bansha Castle,http://www.banshacastle.com,+353(0)6254187,-8.070331,52.449206,Tipperary,Bansha,Republic of Ireland,Self Catering Accommodation
Cornode - Lakeside,http://www.escapetoloughderg.net,+353(0)6733376,-8.36967245501083,52.9040393800299,Tipperary,Garrykennedy,Republic of Ireland,Self Catering Accommodation
Fuchsia Lane Farm,https://www.facebook.com/FuchsiaLaneFarm,+353(0)6722041,-8.1747063,53.0399738,Tipperary,Terryglass,Ireland,Self Catering Accommodation
Salterbridge Gatelodge - The Irish Landmark Trust,http://www.irishlandmark.com/property/salterbridge-gatelodge/,+353(0)16704733,-7.86292024730391,52.1512077236746,Waterford,Cappoquin,Republic of Ireland,"Self Catering Accommodation,Welcome Standard"
Mill Road Farm,http://www.millroadfarm.com,+353(0)539129633,-6.568144,52.186498,Wexford,Kilmore Quay,Republic of Ireland,Self Catering Accommodation
Kilmore Cottage,http://www.kilmorecottage.com/,+353(0)539135487,-6.54599580150738,52.2022820732052,Wexford,Kilmore,Republic of Ireland,Self Catering Accommodation
Killiane Castle Courtyard Apartments,https://www.facebook.com/KillianeCastlecountryhousefarm/,+353(0)539158885,-6.44860341909691,52.2919562883194,Wexford,Drinagh,Republic of Ireland,Self Catering Accommodation
12 Glenmalure Pines,http://www.glenmalurepines.com,+44(0)1227371482,-6.297038,52.933304,Wicklow,Greenane,Republic of Ireland,Self Catering Accommodation
Wicklow Head Lighthouse - Irish Landmark Trust,http://www.irishlandmark.com/property/wicklow-head-lighthouse/,+353(0)16704733,-5.99807989182795,52.9653521993747,Wicklow,Wicklow Town,Republic of Ireland,"Self Catering Accommodation,Welcome Standard"
Rock View,http://www.rockviewbb.com,+353(0)214773162,-8.522483,51.70744,Cork,Kinsale,Republic of Ireland,B&B
Anchorage,http://www.anchoragebb.com,+353(0)214773162,-8.52289,51.707711,Cork,Kinsale,Republic of Ireland,B&B
Lakeshore House,http://www.lakeshoreconnemara.com,+353(0)949548311,-9.393496,53.520169,Galway,Clonbur,Republic of Ireland,B&B
Lios-Inis,http://www.liosinisgalwaycity.com,+353(0)91767753,-9.05221,53.288862,Galway,Galway City,Republic of Ireland,B&B
Lurraga House,http://www.lurragahouseireland.com,+353(0)667130231,-9.927792,52.226533,Kerry,Camp,Republic of Ireland,B&B
Rockmount,http://www.rockmount-bnb.com,+353(0)667124507,-9.66597895498659,52.2625118143629,Kerry,Tralee,Republic of Ireland,B&B
Leim Siar,http://www.leimsiar.com,+353(0)9785004,-10.070087,54.098867,Mayo,Blacksod,Republic of Ireland,B&B
Abbey House B&B,http://www.abbeyhouse.ie,+353(0)539124408,-6.464699,52.340387,Wexford,,Republic of Ireland,B&B
Desmond House,http://www.desmondhousekinsale.com,+353(0)214773575,-8.52491400859833,51.7068920817834,Cork,Kinsale,Republic of Ireland,B&B
Church View B&B,http://www.thechurchview.com,+353(0)719182935,-8.51729752386472,53.9939509999999,Sligo,Ballymote,Republic of Ireland,B&B
The Blue Door,http://www.bluedoor.ie,+353(0)539121047,-6.464576,52.340911,Wexford,,Republic of Ireland,B&B
Monart Destination Spa,http://www.monart.ie,+353(0)539238999,-6.611292,52.508204,Wexford,Enniscorthy,Republic of Ireland,Hotel
The Arches Hotel,http://www.thearcheshotel.ie,+353(0)91739000,-8.943129,53.344755,Galway,Claregalway,Republic of Ireland,Hotel
Seabreak,,+44(0)1625829286,-9.93818524175798,52.0584846203303,Kerry,Glenbeigh,Republic of Ireland,Self Catering Accommodation
Otway Beach Cottages - Cottage,,+353(0)876172690,-7.531528,55.133908,Donegal,Rathmullan,Republic of Ireland,Self Catering Accommodation
White Strand B&B,https://www.facebook.com/WhitestrandBnB/,+353(0)749370335,-7.340922,55.353889,Donegal,Malin Head,Republic of Ireland,B&B
The Holiday Hotel,http://www.booking.com/hotel/ie/holiday.en-gb.html,+353(0)91522518,-9.075632,53.259955,Galway,Galway City,Republic of Ireland,Hotel
The Huntsman Inn,http://www.huntsmaninn.com,+353(0)91562849,-9.033889,53.281333,Galway,Galway City,Republic of Ireland,Hotel
Ballyliffin Lodge & Spa,http://www.ballyliffinlodge.com,+353(0)749378200,-7.395356,55.280175,Donegal,Ballyliffin,Republic of Ireland,Hotel
Ring of Kerry Cottages,http://www.tridentholidayhomes.ie/rentals/house-kenmare-ring-of-kerry-holiday-cottages-193189.html,+353(0)12018479,-9.751408,52.121312,Kerry,Templenoe,Republic of Ireland,Self Catering Accommodation
The Croke Park Hotel,http://www.doylecollection.com/crokepark,+353(0)18714444,-6.253864,53.360799,Dublin,Dublin City,Republic of Ireland,Hotel
The Glasshouse,http://www.theglasshouse.ie,+353(0)719194300,-8.474761,54.272476,Sligo,Sligo Town,Republic of Ireland,Hotel
Brú Hostel,http://www.bruhostel.com,+353(0)214559667,-8.466058,51.901447,Cork,Cork City,Republic of Ireland,Hostel
Pier Head Hotel Spa and Leisure Centre,http://www.pierheadhotel.ie,+353(0)719166171,-8.447591,54.466896,Sligo,Mullaghmore,Republic of Ireland,Hotel
The Fáilte Hotel,http://www.failtekillarney.com,+353(0)646633404,-9.506824,52.059407,Kerry,Killarney,Republic of Ireland,Hotel
Bunratty Manor Hotel,https://www.facebook.com/bunrattym,+353(0)61707984,-8.818053,52.698579,Clare,Bunratty,Republic of Ireland,Hotel
The Shamrock Inn Hotel,http://www.shamrockinn.ie,+353(0)657081700,-9.345894,52.93225,Clare,Lahinch,Republic of Ireland,Hotel
The Atlantic Hotel,http://www.atlantichotel.ie,+353(0)657081049,-9.345873,52.932362,Clare,Lahinch,Republic of Ireland,Hotel
Travelodge Dublin Airport Ballymun,http://www.travelodge.ie/hotels/378/Dublin-Airport-South-hotel/rooms-rates?from=list,+353(0)18422000,-6.263166,53.396531,Dublin,Dublin,Republic of Ireland,Hotel
Óstán Ceann Sibéal,http://www.ceannsibealhotel.com/,+353(0)669156433,-10.406964,52.165774,Kerry,Ballyferriter,Republic of Ireland,Hotel
Pondlodge Holiday Cottages,https://www.westlodgehotel.ie/accommodation/,+353(0)2750360,-9.474883,51.672468,Cork,Bantry,Republic of Ireland,Self Catering Accommodation
Fota Island Hotel and Spa,https://twitter.com/fotaisland,+353(0)214883700,-8.291303,51.90019,Cork,Carrigtwohill,Republic of Ireland,Hotel
Newbury Hotel,http://www.thenewburyhotel.com,353449342888,-7.346971,53.5242958,Westmeath,Mullingar,Ireland,Hotel
Cahermore Holiday Village,,+353(0)9621277,-9.091896,54.220057,Sligo,Enniscrone,Republic of Ireland,Self Catering Accommodation
Anglers Rest Hotel,http://www.anglersresthotel.com,+353(0)9335528,-9.106682,53.469495,Galway,Headford,Republic of Ireland,Hotel
Waterville Holiday Cottages,http://www.tridentholidayhomes.ie/Self-Catering/Ireland/Kerry/Waterville/Waterville-Holiday-Homes-(2).aspx,+353(0)12018479,-10.173611,51.83774,Kerry,Waterville,Republic of Ireland,Self Catering Accommodation
Coachmans Hotel,http://www.thecoachmans.com,+353(0)646641311,-9.583693,51.879458,Kerry,Kenmare,Republic of Ireland,Hotel
House Dublin,http://www.housedublin.ie,+353(0)19059090,-6.25514113128281,53.3340782117348,Dublin,Dublin City,Republic of Ireland,Hotel
Cooneys Hotel,http://www.cooneyshotel.com,+353(0)906438180,-7.76442105514809,53.5638691587708,Longford,Ballymahon,Republic of Ireland,Hotel
Carlton Blanchardstown,http://www.carltonhotelblanchardstown.com,+353(0)18275600,-6.380736,53.41881,Dublin,Tyrrelstown,Republic of Ireland,Hotel
Salthill Caravan Park,http://www.salthillcaravanpark.com,+353(0)91523972,-9.10477,53.257153,Galway,Salthill,Republic of Ireland,Camping
Carlton Hotel Dublin Airport,https://www.carltondublinairport.com/en/,+353(0)18667500,-6.240896,53.41536,Dublin,Dublin Airport,Republic of Ireland,Hotel
Valentia Holiday Homes,http://www.rentacottage.ie/self-catering/Kerry/Valencia/Glor_na_Farraige(Type_B)-64.html,+353(0)61411109,-10.3018789881338,51.921191918308,Kerry,,Republic of Ireland,Self Catering Accommodation
Bunratty Haven,http://www.bunrattyhaven.com,+353(0)61708362,-8.830662,52.717226,Clare,Bunratty,Republic of Ireland,B&B
Coomassig View,http://coomassigview.kerry-ireland.com,+353(0)646675005,-9.911975,51.838594,Kerry,Sneem,Republic of Ireland,B&B
Greese View House,http://www.greeseviewhouse.com/,353872394320,-6.844307,52.964474,Kildare,Moone,Republic of Ireland,B&B
Deerpark Manor B&B,http://www.deerparkmanorbandb.com,+353(0)949251078,-8.943372,53.938154,Mayo,Swinford,Republic of Ireland,B&B
Mount Falcon Holiday Cottages,http://www.mountfalcon.com,+353(0)9674472,-9.15734029999999,54.0584778,Mayo,,Ireland,Self Catering Accommodation
Gaultier Lodge,http://www.gaultierlodge.com,+353(0)51382549,-6.98352811669929,52.192843295337,Waterford,Waterford City,Republic of Ireland,"B&B,B&Bs,Historic House"
Eagle View,https://www.booking.com/hotel/ie/eagle-view-holiday-home.en-gb.html,+353(0)578732427,-6.83913329999999,52.9668550999999,Kildare,,Ireland,Self Catering Accommodation
Abbey Farm Holiday Homes,http://www.abbeyfarmholidayhomes.com,+353(0)866073570,-9.295438,51.555151,Cork,Skibbereen,Republic of Ireland,Self Catering Accommodation
River Forest Hotel,http://www.riverforesthotel.com,+353(0)16245678,-6.486982,53.371044,Kildare,Leixlip,Republic of Ireland,Hotel
Mullagh Cottage - Árd Aoibhinn,http://www.loughmaskholidays.com,+353(0)949544009,-9.385321,53.638807,Mayo,Tourmakeady,Republic of Ireland,Self Catering Accommodation
Knockanore Farm Lodges,http://www.knockanorefarm.com,+353(0)567724125,-7.14086557224424,52.5252975656386,Kilkenny,Thomastown,Republic of Ireland,Self Catering Accommodation
Cluain Raite,http://www.rentacottage.ie/holiday-homes/cottages/clare/bunratty_west.htm,+353(0)61411109,-8.81978,52.698871,Clare,Bunratty,Republic of Ireland,Self Catering Accommodation
Castle Dargan Hotel,https://www.facebook.com/Castle-Dargan-Golf-Hotel-Wellness-351501684919348/,+353(0)719118080,-8.436796,54.19783,Sligo,Ballygawley,Republic of Ireland,Hotel
Metro Hotel Dublin Airport,https://www.metrohoteldublinairport.com,+353(0)18669500,-6.263943,53.400918,Dublin,Santry,Republic of Ireland,Hotel
Quality Youghal Holiday Homes,https://www.facebook.com/qualityhotelyoughalcork,+353(0)2493050,-7.872633,51.924996,Cork,Youghal,Republic of Ireland,Self Catering Accommodation
Farren Lee Holiday Cottages,http://www.facebook.com/www.leevalleygolf.cork/,+353(0)217331721,-8.700742,51.890291,Cork,Cork City,Republic of Ireland,Self Catering Accommodation
Imeall na Mara (Seashore House),http://www.imeallnamara.com,+353(0)669155191,-10.373242,52.190496,Kerry,Dingle,Republic of Ireland,B&B
An Grianan Hotel,http://www.angriananhotel.com,+353(0)749368900,-7.433732,55.038929,Donegal,Burt,Republic of Ireland,Hotel
Doonbeg The Links,http://www.trumphotels.com/ireland,+353(0)659055600,-9.499911,52.747618,Clare,Doonbeg,Republic of Ireland,Self Catering Accommodation
Fern Cottage,http://www.ferncottageDonegal.com,+353(0)749137222,-7.879876,54.972828,Donegal,Churchill,Republic of Ireland,Self Catering Accommodation
Rossmore Manor,http://www.rossmoremanor.com,+353(0)749721500,-8.08784394632784,54.6228508941622,Donegal,,Republic of Ireland,B&B
Beaufort Lodge,https://www.facebook.com/pg/Beaufort-Lodge-104487182923319/about/?section=hours&tab=page_info,+353(0)646624822,-9.633578,52.066896,Kerry,Beaufort,Republic of Ireland,B&B
Pond House,http://www.bandbireland.com/accommodation/26886/pond-house,+353(0)214381630,-8.578268,51.954337,Cork,Blarney,Republic of Ireland,B&B
The Ferris Wheel,http://m.facebook.com/Ferris-Wheel-Bed-Breakfast-Gap-of-Dunloe-Killarney-CoKerry-Ireland-1446096425633555/,+353(0)646644609,-9.631776,52.046012,Kerry,Beaufort,Republic of Ireland,B&B
Parkview Hotel,http://www.parkviewhotel.ie,+353(0)12015600,-6.112568,53.092096,Wicklow,,Republic of Ireland,Hotel
Old Boley Country House,http://www.oldboleywexford.com,+353(0)539134553,-6.619649,52.345984,Wexford,Barntown,Republic of Ireland,Self Catering Accommodation
Murphy's Hotel,http://www.murphyshotel.ie,+353(0)719185598,-8.731331,54.053297,Sligo,Tubbercurry,Republic of Ireland,Hotel
Moyvalley Hotel,https://www.facebook.com/moyvalley.balyna/,+353(0)469548000,-6.92306957088362,53.41901509188,Kildare,Moyvalley,Republic of Ireland,Hotel
Fota Island Lodges,http://www.fotaisland.ie/Fota-Island-Lodges,+353(0)214883700,-8.295608,51.897605,Cork,,Republic of Ireland,Self Catering Accommodation
Lawlors,https://www.lawlors.ie/,35345906444,-6.6604302,53.2195543,Kildare,Naas,Ireland,Hotel
Currane Lodge,http://www.curranelodge.ie,+353(0)669474073,-10.142181,51.843299,Kerry,Waterville,Republic of Ireland,B&B
Maldron Hotel Tallaght,http://www.maldronhoteltallaght.com/,+353(0)14685400,-6.376271,53.28395,Dublin,Tallaght,Republic of Ireland,Hotel
Doire Farm Cottages,http://www.facebook.com/Doire-Farm-Cottages-163779897007889/?fref=ts,+353(0)646685312,-9.49108814465728,51.9035577227112,Kerry,Kilgarvan,Republic of Ireland,Self Catering Accommodation
Ethan House B&B,http://www.booking.com/hotel/ie/ethan-house-b-amp-b.html,+353(0)238848795,-9.034592,51.576062,Cork,Rosscarbery,Republic of Ireland,B&B
Powerscourt Hotel Resort Spa,http://www.powerscourthotel.com/,35312748888,-6.180321,53.185287,Wicklow,Enniskerry,Republic of Ireland,Hotel
Glashaus Hotel,http://www.glashaushotel.ie/,+353(0)15381410,-6.37402486727262,53.2878509929561,Dublin,Tallaght,Republic of Ireland,Hotel
Kinnitty Castle Hotel,http://www.kinnittycastlehotel.com,353579137318,-7.6975013,53.1026067,Offaly,Birr,Ireland,Hotel
Downings Coastguard Cottages,http://www.coastguardcottages.ie,+353(0)879589087,-7.81977966870886,55.1927356110219,Donegal,Rosapenna,Republic of Ireland,Self Catering Accommodation
Rockhill Holiday Park,http://www.rockhill.ie/,+353(0)749150012,-7.671828,55.13738,Donegal,Kerrykeel,Republic of Ireland,Self Catering Accommodation
Summer Hill,http://www.summer-hill.com/,+353(0)2770417,-9.91964067400704,51.6465924063276,Cork,Castletownbere,Republic of Ireland,B&B
Ocean Breeze,http://www.oceanbreezedonegal.com,+353(0)749723827,-8.119464,54.643835,Donegal,Donegal Town,Republic of Ireland,B&B
Loughdan House,http://www.loughdanhouse.com,+353(0)12817027,-6.289260119049,53.0668702129274,Wicklow,Roundwood,Republic of Ireland,B&B
Feerick's Hotel,https://www.feerickshotel.com,353436676025,-7.5212561,53.6570368999999,Westmeath,Rathowen,Ireland,Hotel
Annebrook House Hotel,http://www.annebrook.ie,353449353300,-7.3383096,53.5258684999999,Westmeath,Mullingar,Ireland,Hotel
Shearwater Hotel,https://facebook.com/MaldronHotels,+353(0)909630400,-8.21952123619371,53.3264621818526,Galway,Ballinasloe,Republic of Ireland,Hotel
Deebert House Hotel,http://www.deeberthousehotel.com,+353(0)6331200,-8.570646,52.400813,Limerick,Kilmallock,Republic of Ireland,Hotel
Jacob's Well Hotel,http://www.jacobswellrathdrum.com,+353(0)40446620,-6.230793,52.932588,Wicklow,Rathdrum,Republic of Ireland,Hotel
Ashford Cottages,http://ashfordselfcatering.com/,+353(0)40440831,-6.103141,53.00147,Wicklow,Ashford,Republic of Ireland,Self Catering Accommodation
12 Monterey Court,http://www.12montereycourt.com,+353(0)868424004,-9.073866,53.261041,Galway,Salthill,Republic of Ireland,Self Catering Accommodation
Sleepzone,https://www.facebook.com/sleepzone,+353(0)91566999,-9.05057,53.276675,Galway,Galway City,Republic of Ireland,Hostel
Doolin Riverside Caravan and Camping Park,http://www.campingdoolin.com/,+353(0)852819888,-9.38012634854885,53.016365728377,Clare,Doolin,Republic of Ireland,Camping
Castle Hostel,http://www.castlehostel.ie,+353(0)667125167,-9.701499,52.269062,Kerry,Tralee,Republic of Ireland,Hostel
Atlantic View Cottages,http://www.atlanticviewcottages.com,+353(0)656828282,-9.357362,53.011372,Clare,Doolin,Republic of Ireland,Self Catering Accommodation
Number 2 Glenvale Cottage,,+353(0)949026090,-9.977266,54.005479,Mayo,,Republic of Ireland,Self Catering Accommodation
Loop Head Lightkeeper's Cottage,http://www.irishlandmark.com,+353(0)16704733,-9.9323048465576,52.5607848218885,Clare,Loop Head,Republic of Ireland,"Self Catering Accommodation,Welcome Standard"
Watch House Cottage Number 4,https://www.facebook.com/4watchhousecottages,+353(0)669762388,-10.2875418674225,51.9257913141442,Kerry,Knightstown,Republic of Ireland,Self Catering Accommodation
Rafter's B&B,http://www.raftersbar.ie,+353(0)719166610,-8.62455580500751,54.2211344323567,Sligo,Beltra,Republic of Ireland,B&B
Portbeg Holiday Homes at Donegal Bay,http://www.portbegholidayhomes.com,+353(0)719829952,-8.302093,54.477521,Donegal,Bundoran,Republic of Ireland,Self Catering Accommodation
Almanii B&B,http://www.almanii.com,+353(0)18574902,-6.244355,53.387318,Dublin,Whitehall,Republic of Ireland,B&B
Eagle's Nest Bed & Breakfast,http://www.eaglesnest-BB.com,+353(0)749544893,-8.337178,54.844738,Donegal,Lettermacaward,Republic of Ireland,B&B
Kilians Lodge Hotel,http://www.kilianslodge.com/index.php,353469242201,-6.945492,53.811375,Cavan,Mullagh,Republic of Ireland,Hotel
Anchor Bay Cottages,http://www.irelandholidayhomes.com,+353(0)238846315,-8.71568,51.635105,Cork,Courtmacsherry,Republic of Ireland,Self Catering Accommodation
Cow House Studios,http://www.cowhousestudios.com,+353(0)539169567,-6.81073249293092,52.5046852451073,Wexford,Rathnure,Republic of Ireland,"B&B,Welcome Standard"
Ballymacarbry Hostel,http://www.ballymacarbry.com,+353(0)526185483,-7.710547,52.266575,Waterford,,Republic of Ireland,"Hostel,Welcome Standard"
Martello Tower,http://www.martellotowersutton.com,+353(0)861642671,-6.096075,53.369321,Dublin,Sutton,Republic of Ireland,Self Catering Accommodation
Rowan Tree,https://www.facebook.com/RowanTreeHostel?fref=ts,+353(0)656868687,-8.98257999140173,52.8461238815598,Clare,Ennis,Republic of Ireland,"Hostel,Welcome Standard"
Elthorne House,,+353(0)863626479,-8.44170570373535,54.7851839321283,Donegal,Ardara,Republic of Ireland,Self Catering Accommodation
The Old Imperial Hotel,http://www.theoldimperialhotel.com,+353(0)2492435,-7.850104,51.955522,Cork,Youghal,Republic of Ireland,Hotel
Killarney House (Tralee),http://www.killarneyhousetralee.com,+353(0)667196989,-9.737669,52.283042,Kerry,Tralee,Republic of Ireland,B&B
2 Millfield House,http://www.kenmare-selfcatering.com,+353(0)646685602,-9.598536,51.88282,Kerry,Kenmare,Republic of Ireland,Self Catering Accommodation
Adare Farm Cottage,http://www.adarefarmcottage.com,+353(0)61396223,-8.801211,52.552666,Limerick,Adare,Republic of Ireland,Self Catering Accommodation
Mulgrave Lodge,,35312801664,-6.136987,53.290174,Dublin,,Republic of Ireland,Hostel
Ballyblood Lodge and Granny's Cottage,http://www.ballybloodlodge.com,+353(0)656835713,-8.76086497221828,52.8706371649909,Clare,Tulla,Republic of Ireland,Self Catering Accommodation
Viking House Hotel,http://www.vikinghousehotel.com,+353(0)749543295,-8.38558637382403,55.0226657002829,Donegal,Kincasslagh,Republic of Ireland,Hotel
Step House,http://www.stephousehotel.ie/index.html,+353(0)599773209,-6.927435,52.601208,Carlow,Borris,Republic of Ireland,Hotel
Nyali Lodge,http://www.nyalilodge.com,+353(0)214812717,-8.30293082162908,51.8517779815115,Cork,Cobh,Republic of Ireland,B&B
Bolands,http://www.bolandsdingle.ie,+353(0)669151426,-10.273092,52.143677,Kerry,Dingle,Republic of Ireland,B&B
Valley Lodge Farm Hostel,http://www.valleylodgeaccommodation.com/hostel.htm,+353(0)949365180,-9.058048,53.784251,Mayo,Claremorris,Republic of Ireland,Hostel
Strandhill Lodge and Suites,http://www.strandhilllodgeandsuites.com,+353(0)719122122,-8.59610344849204,54.2670651873161,Sligo,Strandhill,Republic of Ireland,Hotel
Michaeleen's Manor B&B,http://www.michaeleensmanor.com/,353949546089,-9.270113,53.539006,Mayo,,Ireland,B&B
The Red Door Country House,https://www.facebook.com/TheRedDoorFahan/,+353(0)749360289,-7.4664325497722,55.0850320827163,Donegal,Fahan,Ireland,"B&B,Welcome Standard"
Newtown Farm Country House,http://www.newtownfarm.com,+353(0)2494143,-7.725015,51.996701,Waterford,Ardmore,Ireland,B&B
Hillview,http://www.hillviewbray.com,+353(0)12877226,-6.09384331034664,53.1732961626398,Wicklow,Bray,Ireland,B&B
Audley House,http://www.audleyhousecork.com,+353(0)214274292,-8.48789,51.895745,Cork,Western Road,Ireland,B&B
Muckno Lodge,http://www.mucknolodge.ie,+353(0)879531435,-6.68466194777681,54.0927047472481,Monaghan,Toome,Ireland,Self Catering Accommodation
Phoenix Park Hotel,http://www.phoenixparkhotel.ie,+353(0)16772870,-6.29479071376954,53.3483642383565,Dublin,Dublin,Ireland,Hotel
Arranmore Holiday Village,https://arranmoreisland.ie/,+353(0)749520533,-8.50296034633788,54.980191181303,Donegal,,Ireland,Self Catering Accommodation
The Old School,,+353(0)656703666,-9.7695,52.599567,Clare,Cross,Ireland,B&B
Fallon's,http://www.fallonsbedandbreakfastkinvara.ie/,+353(0)91638088,-8.939934564032,53.1391022229712,Galway,Kinvara,Ireland,B&B
Riverside Cottage,http://www.riversidecottagedoolin.com,+353(0)657074049,-9.38345055872196,53.013178234257,Clare,Doolin,Ireland,B&B
7 Blackberry Glade,http://www.seacrestarklow.com,+353(0)40233724,-6.15423174603267,52.7918195959635,Wicklow,Arklow,Ireland,Self Catering Accommodation
Orchid House,http://www.orchidhouse.net,+353(0)657076975,-9.29912720006109,53.0995364710157,Clare,Fanore,Ireland,B&B
Lough Bawn House,https://www.facebook.com/Loughbawn-House-BB-189640781135975/?fref=ts,353449666186,-7.21216,53.6474715,Westmeath,Collinstown,Ireland,B&B
Sea Mist,,+353(0)877757985,-9.33408410395509,53.2447157015205,Galway,Spiddal,Ireland,B&B
Bayview,http://www.bayviewlettermore.com,+353(0)91551757,-9.675007,53.295491,Galway,Lettermore,Ireland,B&B
Fáilte B&B,http://www.paxad.ie/failtebandb,+353(0)9826005,-9.3191882,53.8449215,Mayo,,Ireland,B&B
Westport Country Lodge Hotel,http://www.westportcountrylodge.ie/,+353(0)9856030,-9.46449190342502,53.7845212179776,Mayo,Westport,Ireland,Hotel
Go Explore Hostel & Sailor's Bar,http://www.goexplorehostel.ie/hostel-accommodation-mayo/,+353(0)874108706,-9.95301,53.80156,Mayo,Clare Island,Ireland,Hostel
Horetown House,http://www.horetownhouse.ie,+353(0)51565633,-6.72155808413083,52.3163649183753,Wexford,,Ireland,Hotel
Dromquinna Manor,https://www.facebook.com/pages/Dromquinna-Manor/165717870152060?ref=br_tf,+353(0)646642888,-9.64382984331052,51.8714951710643,Kerry,Kenmare,Ireland,Hotel
Kilronan House,,+353(0)719647048,-8.17519069,54.06649058,Roscommon,Boyle,Ireland,B&B
Teac Chondai Thatch cottage,http://www.teacchondai.com,+353(0)851003321,-8.28785983622833,54.9992329246709,Donegal,Annagry,Ireland,Self Catering Accommodation
The Connemara Hostel (Sleepzone),https://www.sleepzone.ie/the-connemara-hostel,+353(0)9542929,-9.77801905090336,53.5939655249686,Galway,Leenane,Ireland,Hostel
Atlantic 'N' Riverside,http://www.easkeybandb.com,+353(0)9649837,-8.960796,54.286351,Sligo,Easkey,Ireland,B&B
Ennisdrum House,,+353(0)9783039,-9.746667,54.144722,Mayo,Bangor Erris,Ireland,B&B
Shady Hollow B&B,http://www.hollowaytravel.com,+353(0)2979194,-9.05698,52.12311,Cork,Mallow,Ireland,B&B
Beach Haven,http://www.beachhavenhouse.com,+353(0)51390208,-7.145,52.166,Waterford,Tramore,Ireland,B&B
MDI's Home from Home,http://www.mdi.ie,+353(0)16236414,-6.35259881650813,53.3509876078664,Dublin,Chapelizod,Ireland,Self Catering Accommodation
Southbeach Apartments,http://www.southbeachholidayapartments.com,+353(0)851610179,-6.38955832,52.27807046,Wexford,Rosslare Strand,Ireland,Self Catering Accommodation
Rountree's Hill,http://www.rountreeshill.com,+353(0)867398346,-7.073139,54.055357,Cavan,Cootehill,Ireland,Self Catering Accommodation
St Bridget's B&B,,+353(0)749361319,-7.455136,55.13857,Donegal,Buncrana,Ireland,B&B
Ballyliffin Townhouse Hotel,http://www.ballyliffintownhouse.ie,+353(0)749378300,-7.3949429923432,55.2775966137989,Donegal,Ballyliffin,Ireland,Hotel
Binion Bay Caravan Park,http://www.caravanandcampingireland.ie/,+353(0)749376800,-7.42566222247683,55.276291814743,Donegal,Clonmany,Ireland,"Camping,Welcome Standard"
Robin Hill,https://www.facebook.com/robinhillcobh/,+353(0)214812222,-8.31149,51.84823,Cork,Rushbrooke,Ireland,B&B
Newlands Lodge,http://www.newlandslodge.com,+353(0)567729862,-7.26364,52.59256,Kilkenny,Kilkenny City,Ireland,B&B
Castle Ivy Lodge,http://www.myinfo.ie/Cashel-Ivy-Lodge-Self-Catering/,+353(0)6252500,-7.8884098,52.5197642,Tipperary,Cashel,Ireland,Self Catering Accommodation
Oscars Hostel,http://www.oscarshostel.com,+353(0)212418380,-8.45467499325411,51.9026881574762,Cork,Cork City,Ireland,Hostel
Dunmore East Holiday Park,http://www.dunmoreholiday.ie/,+353(0)877022566,-6.99214888095093,52.1592330909647,Waterford,Dunmore East,Ireland,Camping
Osborne's Storehouse,http://osborne-storehouse.com,+353(0)599771722,-6.83256696693422,52.6011257398305,Carlow,Borris,Ireland,"Self Catering Accommodation,Welcome Standard"
The Cliffs of Moher Retreat,http://www.cliffsofmoherretreat.com/all-retreats/,+353(0)657086805,-9.43318365500704,52.9445586866438,Clare,Liscannor,Ireland,"Self Catering Accommodation,Welcome Standard,Activity Holiday Accommodation"
Silver Line Cruisers,https://silverlinecruisers.com/,+353(0)579151112,-7.99011591852422,53.1938519125499,Offaly,Banagher,Ireland,"Self Catering Accommodation,Welcome Standard,Activity Holiday Accommodation"
Upperchurch Self Catering Cottage & Spa,,+353(0)876626028,-8.03872232861476,52.7031133053128,Tipperary,Upperchurch,Ireland,Self Catering Accommodation
Galway City Hostel,http://www.galwaycityhostel.com,+353(0)91535878,-9.04767018941038,53.2742164945249,Galway,Eyre Square,Ireland,Hostel
The Charles Stewart,http://www.charlesstewart.ie,+353(0)18780350,-6.26225182209009,53.3537177915548,Dublin,Dublin,Ireland,"B&B,Welcome Standard"
The Cosy Cottage,http://www.thecosycottage.com,+353(0)749385740,-7.03912624187239,55.1892271549434,Donegal,Moville,Ireland,"B&B,Welcome Standard"
South Aran Restaurant & Rooms,http://www.southaran.com,+353(0)9975073,-9.5300388673769,53.0674552805568,Galway,Aran Islands,Ireland,"B&B,Welcome Standard"
Western Greenway Bed & Breakfast,http://www.westerngreenwaybnb.com/,+353(0)871312470,-9.53748731338771,53.8868925481499,Mayo,Newport,Ireland,B&B
Cara House,http://www.carabedandbreakfast.com/,+353(0)949388315,-8.91955421325076,53.7940850577665,Mayo,Knock,Ireland,"B&B,Welcome Standard"
Aughris House Beach Bar,http://www.thebeachbarsligo.com/,+353(0)719176465,-8.75712649202421,54.2692849627574,Sligo,Templeboy,Ireland,"B&B,Welcome Standard"
The Fanad Lodge,https://www.facebook.com/fanadlodge.fanadlodge/,+353(0)749159057,-7.70244550830079,55.2446648676826,Donegal,Letterkenny,Ireland,"B&B,Welcome Standard"
Glenmalure,https://anoige.ie/glenmalure-youth-hostel/,+353(0)18304555,-6.42190374909512,52.9915864126283,Wicklow,Glenmalure,Ireland,"Hostel,Welcome Standard"
Inisean B&B,http://www.iniseanbandb.com,+353(0)749521455,-8.36987161636352,54.953465954388,Donegal,Dungloe,Ireland,B&B
Árasáin Cholmcille,http://arasaincholmcille.littleireland.ie,+353(0)861261103,-8.23175337041016,55.2663814990265,Donegal,Derrybeg,Ireland,Self Catering Accommodation
Hazelwood Lodge,http://www.hazelwoodlodge.ie/,+353(0)657077092,-9.1557710371178,53.1060822393052,Clare,Ballyvaughan,Ireland,"B&B,Welcome Standard"
Ocean View Park,https://www.facebook.com/Ocean-View-Park-218745354813181/?rc=p,+353(0)657081626,-9.34853546325985,52.9235276450585,Clare,Lahinch,Ireland,"Camping,Welcome Standard"
The Gateway Lodge,http://www.thegatewaydonegal.com,+353(0)749740405,-8.11500329934517,54.6562613128712,Donegal,,Ireland,"B&B,Welcome Standard"
Nox Hotel,http://www.noxhotelgalway.ie,+353(0)91735555,-9.04227766418932,53.2866811784174,Galway,Headford Road,Ireland,Hotel
Lough Ree (East) Caravan & Camping,http://loughreeeast.wix.com/loughreeeast,353906478561,-7.89320538346294,53.448710974089,Westmeath,Ballykeeran,Ireland,"Camping,Welcome Standard"
O'Briens' Cashel Lodge,http://www.cashel-lodge.com,+353(0)6261003,-7.89639724371636,52.5202301906489,Tipperary,Cashel,Ireland,"B&B,Welcome Standard"
The Upton Court Hotel,http://www.seanogs.ie,+353(0)539130128,-6.28033392600264,52.5173620455182,Wexford,Kilmuckridge,Ireland,Hotel
Duncannon Beach Holiday Park,http://www.duncannonholidaypark.com,+353(0)51389707,-6.91906851506234,52.2184451047818,Wexford,Duncannon,Ireland,"Camping,Welcome Standard"
Racey Byrne's B&B,http://www.facebook.com/raceybyrnes/,+353(0)599131790,-6.92578722011171,52.836146580976,Carlow,,Ireland,"B&B,Welcome Standard"
Ardboula House,http://ardboula.com/,353861730769,-8.77483905744703,52.894541538806,Clare,Tulla,Ireland,"Self Catering Accommodation,Welcome Standard"
Valentia Island Caravan & Camping,http://www.valentiaislandcamping.com,+353(0)879673673,-10.2924544927291,51.9239022327028,Kerry,Knightstown,Ireland,"Camping,Welcome Standard"
Diamond Hill Country House,http://www.diamondhill.ie,+353(0)860658631,-7.07998971169206,52.2773737187572,Waterford,Waterford City,Ireland,"B&B,Welcome Standard"
Wellington Quay CityBreak Apartments,http://www.facebook.com/DublinApartments,+353(0)14433920,-6.26588316051402,53.3454665632539,Dublin,Dublin,Ireland,"Self Catering Accommodation,Welcome Standard"
Spencer Dock CityBreak Apartments,http://www.citybreakapartments.com,+353(0)14433920,-6.23711110441126,53.3480192772821,Dublin,Dublin City,Ireland,"Self Catering Accommodation,Welcome Standard"
The Ritz,http://www.theritz-killybegs.com/,+353(0)749731309,-8.44109216593585,54.6369956040573,Donegal,Killybegs,Ireland,"Hostel,Welcome Standard"
The Ashe Hotel,http://www.theashehotel.ie,+353(0)667106300,-9.704521838623,52.2708352168586,Kerry,Tralee,Ireland,Hotel
The Mill Restaurant & Accommodation,https://www.themilldunfanaghy.com/,353749136985,-7.9795346,55.1767293,Donegal,Dunfanaghy,Ireland,"B&B,Welcome Standard"
Tir na hÓige,http://easkey.ie/CaravanPark.html,+353(0)9649052,-8.96172546983643,54.2857249413623,Sligo,Easkey,Ireland,"Camping,Welcome Standard"
